{"version": 0.6, "generator": "Overpass API 0.7.62.10 2d4cfc48", "osm3s": {"timestamp_osm_base": "2026-02-07T17:02:30Z", "copyright": "The data included in this document is from www.openstreetmap.org. The data is made available under ODbL."}, "elements": [{"type": "node", "id": 845504629, "lat": -25.0853573, "lon": -50.1774878}, {"type": "node", "id": 845504630, "lat": -25.0858522, "lon": -50.1777813}, {"type": "node", "id": 845504631, "lat": -25.0859951, "lon": -50.1773154}, {"type": "node", "id": 845504632, "lat": -25.0855101, "lon": -50.177066}, {"type": "node", "id": 845504715, "lat": -25.0927985, "lon": -50.1699843, "tags": {"amenity": "school", "name": "Col\u00e9gio SESI"}}, {"type": "node", "id": 853366724, "lat": -25.0835034, "lon": -50.1347852}, {"type": "node", "id": 859537379, "lat": -25.1052671, "lon": -50.1515047, "tags": {"addr:housenumber": "699", "addr:postcode": "84035-060", "addr:street": "Rua Dom\u00edcio da Gama", "amenity": "school", "name": "Escola Municipal Vereador Orival Carneiro Martins", "source": "Prefeitura de Ponta Grossa - PR", "source_ref": "http://wiki.openstreetmap.org/wiki/Pt-br:WikiProject_Brazil/PR/Ponta_Grossa/Agreement"}}, {"type": "node", "id": 859537380, "lat": -25.0694453, "lon": -50.1635789, "tags": {"addr:housenumber": "143", "addr:postcode": "84015-070", "addr:street": "Rua Eg\u00eddio Don\u00e1", "amenity": "school", "name": "Escola Municipal Professora Maria Vit\u00f3ria Braga Ra", "source": "Prefeitura de Ponta Grossa - PR", "source_ref": "http://wiki.openstreetmap.org/wiki/Pt-br:WikiProject_Brazil/PR/Ponta_Grossa/Agreement"}}, {"type": "node", "id": 859537381, "lat": -25.0780976, "lon": -50.1337149, "tags": {"addr:housenumber": "2001", "addr:postcode": "84020-010", "addr:street": "Rua Fagundes Varela", "amenity": "school", "name": "Escola Municipal Professora Ruth Holzmann Ribas", "source": "Prefeitura de Ponta Grossa - PR", "source_ref": "http://wiki.openstreetmap.org/wiki/Pt-br:WikiProject_Brazil/PR/Ponta_Grossa/Agreement"}}, {"type": "node", "id": 859537382, "lat": -25.0923214, "lon": -50.1319743, "tags": {"addr:housenumber": "2145", "addr:postcode": "84025-000", "addr:street": "Avenida General Carlos Cavalcanti", "amenity": "school", "name": "Escola Estadual General Ant\u00f4nio Sampaio", "source": "Prefeitura de Ponta Grossa - PR", "source_ref": "http://wiki.openstreetmap.org/wiki/Pt-br:WikiProject_Brazil/PR/Ponta_Grossa/Agreement"}}, {"type": "node", "id": 859537383, "lat": -25.0985707, "lon": -50.1592301, "tags": {"addr:housenumber": "537", "addr:postcode": "84001-970", "addr:street": "Rua Santana", "amenity": "school", "name": "Escola Municipal Thereza Cristina Pusch", "source": "Prefeitura de Ponta Grossa - PR", "source_ref": "http://wiki.openstreetmap.org/wiki/Pt-br:WikiProject_Brazil/PR/Ponta_Grossa/Agreement"}}, {"type": "node", "id": 859537384, "lat": -25.0811689, "lon": -50.2367805, "tags": {"addr:housenumber": "88", "addr:street": "Avenida Bernardino de Campos", "amenity": "school", "name": "Escola Municipal Fel\u00edcio Franscisquini", "source": "Prefeitura de Ponta Grossa - PR", "source_ref": "http://wiki.openstreetmap.org/wiki/Pt-br:WikiProject_Brazil/PR/Ponta_Grossa/Agreement"}}, {"type": "node", "id": 859537385, "lat": -25.0782256, "lon": -50.1782109, "tags": {"addr:housenumber": "1076", "addr:street": "Rua Visconde de Porto Alegre", "amenity": "school", "name": "Escola Municipal S\u00e3o Jorge", "source": "Prefeitura de Ponta Grossa - PR", "source_ref": "http://wiki.openstreetmap.org/wiki/Pt-br:WikiProject_Brazil/PR/Ponta_Grossa/Agreement"}}, {"type": "node", "id": 859537386, "lat": -25.120542, "lon": -50.1436357, "tags": {"addr:housenumber": "1004", "addr:postcode": "84036-150", "addr:street": "Avenida Aldo Vergani", "amenity": "school", "name": "Escola Estadual Maestro Bento Mossurunga", "source": "Prefeitura de Ponta Grossa - PR", "source_ref": "http://wiki.openstreetmap.org/wiki/Pt-br:WikiProject_Brazil/PR/Ponta_Grossa/Agreement"}}, {"type": "node", "id": 859537387, "lat": -25.0824566, "lon": -50.2014607, "tags": {"addr:street": "Rua Michel Laidane", "amenity": "college", "name": "Col\u00e9gio Estadual Padre Carlos Zelesny", "postal_code": "84060-000", "source": "Prefeitura de Ponta Grossa - PR", "source_ref": "http://wiki.openstreetmap.org/wiki/Pt-br:WikiProject_Brazil/PR/Ponta_Grossa/Agreement"}}, {"type": "node", "id": 859537388, "lat": -25.065647, "lon": -50.1546899, "tags": {"addr:housenumber": "34", "addr:postcode": "84015-140", "addr:street": "Rua Casemiro Popinigis", "amenity": "school", "name": "Escola Municipal Doutor Guilherme Heller Bauer", "source": "Prefeitura de Ponta Grossa - PR", "source_ref": "http://wiki.openstreetmap.org/wiki/Pt-br:WikiProject_Brazil/PR/Ponta_Grossa/Agreement"}}, {"type": "node", "id": 859537389, "lat": -25.0484777, "lon": -50.1406237, "tags": {"addr:street": "Avenida Israel", "amenity": "school", "name": "Escola Estadual Doranh Gomes Daitchaman", "postal_code": "84016-645", "source": "Prefeitura de Ponta Grossa - PR", "source_ref": "http://wiki.openstreetmap.org/wiki/Pt-br:WikiProject_Brazil/PR/Ponta_Grossa/Agreement"}}, {"type": "node", "id": 859537390, "lat": -25.0922514, "lon": -50.1185862, "tags": {"addr:housenumber": "3453", "addr:postcode": "84030-000", "addr:street": "Avenida General Carlos Cavalcanti", "amenity": "school", "name": "Escola Municipal Professora Otac\u00edlia Hasselmann de", "source": "Prefeitura de Ponta Grossa - PR", "source_ref": "http://wiki.openstreetmap.org/wiki/Pt-br:WikiProject_Brazil/PR/Ponta_Grossa/Agreement"}}, {"type": "node", "id": 859537391, "lat": -25.0915434, "lon": -50.1364329}, {"type": "node", "id": 859537392, "lat": -25.0541322, "lon": -50.1465013, "tags": {"addr:housenumber": "935", "addr:postcode": "84016-630", "addr:street": "Avenida Ant\u00f4nio Saad", "amenity": "school", "name": "Escola Municipal Professora Judith Macedo Silveira", "source": "Prefeitura de Ponta Grossa - PR", "source_ref": "http://wiki.openstreetmap.org/wiki/Pt-br:WikiProject_Brazil/PR/Ponta_Grossa/Agreement"}}, {"type": "node", "id": 859537393, "lat": -25.1720237, "lon": -50.1329261, "tags": {"addr:street": "Rua Dourados", "amenity": "school", "name": "Escola Municipal Agenoridas Stadler", "source": "Prefeitura de Ponta Grossa - PR", "source_ref": "http://wiki.openstreetmap.org/wiki/Pt-br:WikiProject_Brazil/PR/Ponta_Grossa/Agreement"}}, {"type": "node", "id": 859537394, "lat": -25.0679041, "lon": -50.2060441, "tags": {"addr:housenumber": "445", "addr:postcode": "84001-970", "addr:street": "Rua Bas\u00edlio da Gama", "amenity": "school", "name": "Escola Municipal Professor Walter Elias", "source": "Prefeitura de Ponta Grossa - PR", "source_ref": "http://wiki.openstreetmap.org/wiki/Pt-br:WikiProject_Brazil/PR/Ponta_Grossa/Agreement"}}, {"type": "node", "id": 859537395, "lat": -25.0582174, "lon": -50.167717, "tags": {"addr:housenumber": "370", "addr:postcode": "84073-110", "addr:street": "Rua Paulo Wagnitz", "amenity": "school", "name": "Escola Municipal Prefeito Jos\u00e9 Bonif\u00e1cio Guimar\u00e3es", "source": "Prefeitura de Ponta Grossa - PR", "source_ref": "http://wiki.openstreetmap.org/wiki/Pt-br:WikiProject_Brazil/PR/Ponta_Grossa/Agreement"}}, {"type": "node", "id": 859537396, "lat": -25.0654794, "lon": -50.2079441, "tags": {"addr:housenumber": "109", "addr:street": "Rua S\u00e3o M\u00e1rio", "amenity": "school", "name": "Escola Municipal Professora Maria Antonia Andrade", "source": "Prefeitura de Ponta Grossa - PR", "source_ref": "http://wiki.openstreetmap.org/wiki/Pt-br:WikiProject_Brazil/PR/Ponta_Grossa/Agreement"}}, {"type": "node", "id": 859537397, "lat": -25.0417906, "lon": -50.2484222, "tags": {"addr:housenumber": "1703", "addr:postcode": "84064-530", "addr:street": "Rua Rio Amazonas", "amenity": "college", "name": "Col\u00e9gio Estadual Frei Doroteu de P\u00e1dua", "source": "Prefeitura de Ponta Grossa - PR", "source_ref": "http://wiki.openstreetmap.org/wiki/Pt-br:WikiProject_Brazil/PR/Ponta_Grossa/Agreement"}}, {"type": "node", "id": 859537398, "lat": -25.0865208, "lon": -50.1702851}, {"type": "node", "id": 859537399, "lat": -25.0929083, "lon": -50.1308389, "tags": {"addr:housenumber": "2145", "addr:postcode": "84025-000", "addr:street": "Avenida General Carlos Cavalcanti", "amenity": "school", "name": "Escola Municipal Eno Teodoro Wanke", "source": "Prefeitura de Ponta Grossa - PR", "source_ref": "http://wiki.openstreetmap.org/wiki/Pt-br:WikiProject_Brazil/PR/Ponta_Grossa/Agreement"}}, {"type": "node", "id": 859537400, "lat": -25.0770948, "lon": -50.1681766, "tags": {"addr:housenumber": "1187", "addr:postcode": "84070-270", "addr:street": "Rua J\u00falia Lopes", "amenity": "school", "name": "Escola Municipal Catarina Mir\u00f3", "source": "Prefeitura de Ponta Grossa - PR", "source_ref": "http://wiki.openstreetmap.org/wiki/Pt-br:WikiProject_Brazil/PR/Ponta_Grossa/Agreement"}}, {"type": "node", "id": 859537401, "lat": -25.0788628, "lon": -50.1297907, "tags": {"addr:housenumber": "2730", "addr:postcode": "84020-360", "addr:street": "Rua Almirante Barroso", "amenity": "school", "name": "Escola Municipal Prefeito Doutor Plauto Mir\u00f3 Guima", "source": "Prefeitura de Ponta Grossa - PR", "source_ref": "http://wiki.openstreetmap.org/wiki/Pt-br:WikiProject_Brazil/PR/Ponta_Grossa/Agreement"}}, {"type": "node", "id": 859537402, "lat": -25.110573, "lon": -50.1326217, "tags": {"addr:housenumber": "110", "addr:postcode": "84026-360", "addr:street": "Rua Quer\u00eancia do Norte", "amenity": "school", "name": "Escola Municipal Prefeito Major Manoel Vicente Bit", "source": "Prefeitura de Ponta Grossa - PR", "source_ref": "http://wiki.openstreetmap.org/wiki/Pt-br:WikiProject_Brazil/PR/Ponta_Grossa/Agreement"}}, {"type": "node", "id": 859537403, "lat": -25.1065421, "lon": -50.1004955, "tags": {"addr:housenumber": "1383", "addr:postcode": "84032-000", "addr:street": "Avenida Euz\u00e9bio de Queir\u00f3z", "amenity": "school", "name": "Escola Municipal Doutor Carlos Ribeiro de Macedo", "source": "Prefeitura de Ponta Grossa - PR", "source_ref": "http://wiki.openstreetmap.org/wiki/Pt-br:WikiProject_Brazil/PR/Ponta_Grossa/Agreement"}}, {"type": "node", "id": 859537404, "lat": -25.1106646, "lon": -50.1635999, "tags": {"addr:housenumber": "740", "addr:street": "Rua Lopes Trov\u00e3o", "amenity": "school", "name": "Escola Municipal Humberto Cordeiro", "source": "Prefeitura de Ponta Grossa - PR", "source_ref": "http://wiki.openstreetmap.org/wiki/Pt-br:WikiProject_Brazil/PR/Ponta_Grossa/Agreement"}}, {"type": "node", "id": 859537405, "lat": -25.0855564, "lon": -50.1773924, "tags": {"addr:street": "Pra\u00e7a Get\u00falio Vargas", "amenity": "school", "name": "Escola Estadual Professor Am\u00e1lio Pinheiro", "postal_code": "84070-550", "source": "Prefeitura de Ponta Grossa - PR", "source_ref": "http://wiki.openstreetmap.org/wiki/Pt-br:WikiProject_Brazil/PR/Ponta_Grossa/Agreement"}}, {"type": "node", "id": 859537406, "lat": -25.0668816, "lon": -50.121366, "tags": {"addr:housenumber": "103", "addr:postcode": "84001-970", "addr:street": "Rua Jos\u00e9 Ferreira Menezes", "amenity": "school", "name": "Escola Municipal Prefeito Engenheiro Eurico Batist", "source": "Prefeitura de Ponta Grossa - PR", "source_ref": "http://wiki.openstreetmap.org/wiki/Pt-br:WikiProject_Brazil/PR/Ponta_Grossa/Agreement"}}, {"type": "node", "id": 859537407, "lat": -25.129416, "lon": -50.1061547, "tags": {"addr:housenumber": "12", "addr:postcode": "84033-000", "addr:street": "Rua Cedrilho", "amenity": "school", "name": "Escola Municipal Doutor Edgar Sponholz", "source": "Prefeitura de Ponta Grossa - PR", "source_ref": "http://wiki.openstreetmap.org/wiki/Pt-br:WikiProject_Brazil/PR/Ponta_Grossa/Agreement"}}, {"type": "node", "id": 859537409, "lat": -25.113786, "lon": -50.1481147, "tags": {"addr:housenumber": "10", "addr:postcode": "84035-490", "addr:street": "Rua Doutor Carlos Deszaunet Netto", "amenity": "school", "name": "Escola Municipal Prefeito Theodoro Batista Rosas", "source": "Prefeitura de Ponta Grossa - PR", "source_ref": "http://wiki.openstreetmap.org/wiki/Pt-br:WikiProject_Brazil/PR/Ponta_Grossa/Agreement"}}, {"type": "node", "id": 859537411, "lat": -25.1084432, "lon": -50.1098143, "tags": {"addr:street": "Rua Ana Gnatta Borsato", "amenity": "college", "name": "Col\u00e9gio Estadual Padre Arnaldo Jansen", "postal_code": "84032-000", "source": "Prefeitura de Ponta Grossa - PR", "source_ref": "http://wiki.openstreetmap.org/wiki/Pt-br:WikiProject_Brazil/PR/Ponta_Grossa/Agreement"}}, {"type": "node", "id": 859537412, "lat": -25.0888669, "lon": -50.1835028, "tags": {"addr:housenumber": "228", "addr:postcode": "84020-320", "addr:street": "Rua Paes de Andrade", "amenity": "school", "name": "Escola Municipal Professor Nelson Pereira Jorge", "source": "Prefeitura de Ponta Grossa - PR", "source_ref": "http://wiki.openstreetmap.org/wiki/Pt-br:WikiProject_Brazil/PR/Ponta_Grossa/Agreement"}}, {"type": "node", "id": 859537413, "lat": -25.093372, "lon": -50.0904201, "tags": {"addr:street": "Avenida Guilherme Augusto Jansen", "amenity": "school", "name": "Escola Estadual Padre Pedro Grzelczaki", "postal_code": "84030-550", "source": "Prefeitura de Ponta Grossa - PR", "source_ref": "http://wiki.openstreetmap.org/wiki/Pt-br:WikiProject_Brazil/PR/Ponta_Grossa/Agreement"}}, {"type": "node", "id": 859537414, "lat": -25.0925264, "lon": -50.2026615, "tags": {"addr:street": "Rua Cinamomo", "amenity": "school", "name": "Escola Estadual Edson Pietrobelli", "postal_code": "84061-360", "source": "Prefeitura de Ponta Grossa - PR", "source_ref": "http://wiki.openstreetmap.org/wiki/Pt-br:WikiProject_Brazil/PR/Ponta_Grossa/Agreement"}}, {"type": "node", "id": 859537415, "lat": -25.127085, "lon": -50.1783371, "tags": {"addr:housenumber": "78", "addr:postcode": "84046-015", "addr:street": "Rua Doutor Nilton Luiz de Castro", "amenity": "school", "name": "Escola Estadual Alberto Rebello Valente", "source": "Prefeitura de Ponta Grossa - PR", "source_ref": "http://wiki.openstreetmap.org/wiki/Pt-br:WikiProject_Brazil/PR/Ponta_Grossa/Agreement"}}, {"type": "node", "id": 859537416, "lat": -25.1182842, "lon": -50.2056875, "tags": {"addr:street": "Rua Papoula", "amenity": "school", "name": "Escola Osni Villaca Mongruel", "postal_code": "84060-060", "source": "Prefeitura de Ponta Grossa - PR", "source_ref": "http://wiki.openstreetmap.org/wiki/Pt-br:WikiProject_Brazil/PR/Ponta_Grossa/Agreement"}}, {"type": "node", "id": 859537419, "lat": -25.1138666, "lon": -50.1555992, "tags": {"addr:street": "Avenida Visconde de Mau\u00e1", "amenity": "college", "name": "Col\u00e9gio Estadual Professor Colares", "postal_code": "84045-000", "source": "Prefeitura de Ponta Grossa - PR", "source_ref": "http://wiki.openstreetmap.org/wiki/Pt-br:WikiProject_Brazil/PR/Ponta_Grossa/Agreement"}}, {"type": "node", "id": 859537420, "lat": -25.0881292, "lon": -50.1260899, "tags": {"addr:housenumber": "262", "addr:postcode": "84030-060", "addr:street": "Rua Felix Pacheco", "amenity": "school", "name": "Escola Municipal Prefeito Jos\u00e9 Hoffmann", "source": "Prefeitura de Ponta Grossa - PR", "source_ref": "http://wiki.openstreetmap.org/wiki/Pt-br:WikiProject_Brazil/PR/Ponta_Grossa/Agreement"}}, {"type": "node", "id": 859537422, "lat": -25.1566075, "lon": -50.1881765, "tags": {"addr:housenumber": "332", "addr:street": "Rua Bernardo Guimar\u00e3es", "amenity": "school", "name": "Escola Municipal Doutor \u00c1varo Faria da Rocha", "source": "Prefeitura de Ponta Grossa - PR", "source_ref": "http://wiki.openstreetmap.org/wiki/Pt-br:WikiProject_Brazil/PR/Ponta_Grossa/Agreement"}}, {"type": "node", "id": 859537423, "lat": -25.1053973, "lon": -50.1654523, "tags": {"addr:housenumber": "636", "addr:postcode": "84050-000", "addr:street": "Rua Doutor Joaquim de Paula Xavier", "amenity": "college", "name": "Instituto de Educa\u00e7\u00e3o Professor C\u00e9sar Prieto Marti", "source": "Prefeitura de Ponta Grossa - PR", "source_ref": "http://wiki.openstreetmap.org/wiki/Pt-br:WikiProject_Brazil/PR/Ponta_Grossa/Agreement"}}, {"type": "node", "id": 859537424, "lat": -25.0982371, "lon": -50.1388669, "tags": {"addr:housenumber": "650", "addr:postcode": "84025-490", "addr:street": "Rua Bituruna", "amenity": "school", "name": "Escola Municipal Professora Kazuko Inoue", "source": "Prefeitura de Ponta Grossa - PR", "source_ref": "http://wiki.openstreetmap.org/wiki/Pt-br:WikiProject_Brazil/PR/Ponta_Grossa/Agreement"}}, {"type": "node", "id": 859537425, "lat": -25.0991872, "lon": -50.1585414, "tags": {"addr:street": "Pra\u00e7a Roosevelt", "amenity": "school", "name": "Escola Municipal Lagoa Dourada", "postal_code": "84010-069", "source": "Prefeitura de Ponta Grossa - PR", "source_ref": "http://wiki.openstreetmap.org/wiki/Pt-br:WikiProject_Brazil/PR/Ponta_Grossa/Agreement"}}, {"type": "node", "id": 859537426, "lat": -25.0548255, "lon": -50.1588483, "tags": {"addr:street": "Rua Ren\u00ea Gomes Napoli", "amenity": "school", "name": "Escola Estadual Nossa Senhora das Gra\u00e7as", "postal_code": "84073-110", "source": "Prefeitura de Ponta Grossa - PR", "source_ref": "http://wiki.openstreetmap.org/wiki/Pt-br:WikiProject_Brazil/PR/Ponta_Grossa/Agreement"}}, {"type": "node", "id": 859537427, "lat": -25.0642919, "lon": -50.1373909, "tags": {"addr:housenumber": "25", "addr:postcode": "84016-480", "addr:street": "Rua Joaquim Mateus Branco e Silva", "amenity": "school", "name": "Escola Municipal Fioravante Slavieiro", "source": "Prefeitura de Ponta Grossa - PR", "source_ref": "http://wiki.openstreetmap.org/wiki/Pt-br:WikiProject_Brazil/PR/Ponta_Grossa/Agreement"}}, {"type": "node", "id": 859537428, "lat": -25.0690008, "lon": -50.2020463, "tags": {"addr:housenumber": "168", "addr:postcode": "84062-400", "addr:street": "Rua Foz do Igua\u00e7u", "amenity": "school", "name": "Escola Municipal Doutor Jos\u00e9 Pinto Rosas", "source": "Prefeitura de Ponta Grossa - PR", "source_ref": "http://wiki.openstreetmap.org/wiki/Pt-br:WikiProject_Brazil/PR/Ponta_Grossa/Agreement"}}, {"type": "node", "id": 859537429, "lat": -25.0648086, "lon": -50.1854008, "tags": {"addr:housenumber": "600", "addr:postcode": "84071-220", "addr:street": "Rua Professor F\u00e1bio Fanucchi", "amenity": "school", "name": "Escola Estadual Iolando Taques Fonseca", "source": "Prefeitura de Ponta Grossa - PR", "source_ref": "http://wiki.openstreetmap.org/wiki/Pt-br:WikiProject_Brazil/PR/Ponta_Grossa/Agreement"}}, {"type": "node", "id": 859537430, "lat": -25.086132, "lon": -50.1158099, "tags": {"addr:housenumber": "926", "addr:postcode": "84030-040", "addr:street": "Rua Rodrigo Silva", "amenity": "school", "name": "Escola Municipal Doutor Leopoldo Pinto Rosas", "source": "Prefeitura de Ponta Grossa - PR", "source_ref": "http://wiki.openstreetmap.org/wiki/Pt-br:WikiProject_Brazil/PR/Ponta_Grossa/Agreement"}}, {"type": "node", "id": 859537431, "lat": -25.0487529, "lon": -50.1714761, "tags": {"addr:housenumber": "534", "addr:postcode": "84072-090", "addr:street": "Rua Alfredo Pietrobelli", "amenity": "school", "name": "Escola Municipal Professor Kamal Tebcherani", "source": "Prefeitura de Ponta Grossa - PR", "source_ref": "http://wiki.openstreetmap.org/wiki/Pt-br:WikiProject_Brazil/PR/Ponta_Grossa/Agreement"}}, {"type": "node", "id": 859537432, "lat": -25.0591008, "lon": -50.176082}, {"type": "node", "id": 859537433, "lat": -25.0853716, "lon": -50.1951856, "tags": {"addr:housenumber": "480", "addr:postcode": "84062-040", "addr:street": "Rua Presciliano Negr\u00e3o", "amenity": "school", "name": "Escola Municipal Prefeito Engenheiro Cyro Martins", "source": "Prefeitura de Ponta Grossa - PR", "source_ref": "http://wiki.openstreetmap.org/wiki/Pt-br:WikiProject_Brazil/PR/Ponta_Grossa/Agreement"}}, {"type": "node", "id": 859537434, "lat": -25.0681858, "lon": -50.2148164, "tags": {"addr:housenumber": "481", "addr:postcode": "84063-080", "addr:street": "Rua Moacyr Lazarotto de Oliveira", "amenity": "school", "name": "Escola Municipal Professor Jorge Dechandt", "source": "Prefeitura de Ponta Grossa - PR", "source_ref": "http://wiki.openstreetmap.org/wiki/Pt-br:WikiProject_Brazil/PR/Ponta_Grossa/Agreement"}}, {"type": "node", "id": 859537435, "lat": -25.1025177, "lon": -50.1841267, "tags": {"addr:housenumber": "762", "addr:postcode": "84051-090", "addr:street": "Rua Baltazar Lisboa", "amenity": "school", "name": "Escola Municipal Prefeito Doutor Elyseu de Campos", "source": "Prefeitura de Ponta Grossa - PR", "source_ref": "http://wiki.openstreetmap.org/wiki/Pt-br:WikiProject_Brazil/PR/Ponta_Grossa/Agreement"}}, {"type": "node", "id": 859537436, "lat": -25.1777802, "lon": -50.1422484, "tags": {"addr:housenumber": "318", "addr:postcode": "84031-120", "addr:street": "Rua Caraj\u00e1s", "amenity": "school", "name": "Col\u00e9gio Estadual Francisco Pires Machado", "source": "Prefeitura de Ponta Grossa - PR", "source_ref": "http://wiki.openstreetmap.org/wiki/Pt-br:WikiProject_Brazil/PR/Ponta_Grossa/Agreement"}}, {"type": "node", "id": 859537437, "lat": -25.0986533, "lon": -50.1466793, "tags": {"addr:housenumber": "240", "addr:street": "Rua Bonif\u00e1cio Ribas", "amenity": "school", "name": "Escola Municipal Coronel Cl\u00e1udio Gon\u00e7alves Guimar\u00e3", "source": "Prefeitura de Ponta Grossa - PR", "source_ref": "http://wiki.openstreetmap.org/wiki/Pt-br:WikiProject_Brazil/PR/Ponta_Grossa/Agreement"}}, {"type": "node", "id": 859537438, "lat": -25.0841923, "lon": -50.1451171, "tags": {"addr:housenumber": "852", "addr:postcode": "84020-240", "addr:street": "Rua Casemiro de Abreu", "amenity": "school", "name": "Escola Municipal Professora Minervina Fran\u00e7a Scudl", "source": "Prefeitura de Ponta Grossa - PR", "source_ref": "http://wiki.openstreetmap.org/wiki/Pt-br:WikiProject_Brazil/PR/Ponta_Grossa/Agreement"}}, {"type": "node", "id": 859537440, "lat": -25.0446488, "lon": -50.1688635, "tags": {"addr:housenumber": "310", "addr:postcode": "84072-160", "addr:street": "Rua Luiz Pereira Barreto", "amenity": "school", "name": "Escola Municipal Vereador Adelino Machado de Oliveira", "source": "Prefeitura de Ponta Grossa - PR", "source_ref": "http://wiki.openstreetmap.org/wiki/Pt-br:WikiProject_Brazil/PR/Ponta_Grossa/Agreement"}}, {"type": "node", "id": 859537441, "lat": -25.08923, "lon": -50.1642818}, {"type": "node", "id": 859537442, "lat": -25.1480379, "lon": -50.1633387, "tags": {"addr:street": "Rua Curru\u00edra", "amenity": "college", "name": "Col\u00e9gio Estadual Santa Maria", "postal_code": "84062-240", "source": "Prefeitura de Ponta Grossa - PR", "source_ref": "http://wiki.openstreetmap.org/wiki/Pt-br:WikiProject_Brazil/PR/Ponta_Grossa/Agreement"}}, {"type": "node", "id": 859537444, "lat": -25.0962153, "lon": -50.1223438, "tags": {"addr:housenumber": "259", "addr:street": "Rua Jo\u00e3o Thom\u00e9", "amenity": "school", "name": "Escola Municipal Jo\u00e3o Maria Cruz", "source": "Prefeitura de Ponta Grossa - PR", "source_ref": "http://wiki.openstreetmap.org/wiki/Pt-br:WikiProject_Brazil/PR/Ponta_Grossa/Agreement"}}, {"type": "node", "id": 859537446, "lat": -25.1050678, "lon": -50.1543213, "tags": {"addr:street": "Rua Ricardo Wagner", "amenity": "college", "name": "Col\u00e9gio Estadual Jos\u00e9 Elias da Rocha", "postal_code": "84035-220", "source": "Prefeitura de Ponta Grossa - PR", "source_ref": "http://wiki.openstreetmap.org/wiki/Pt-br:WikiProject_Brazil/PR/Ponta_Grossa/Agreement"}}, {"type": "node", "id": 859537447, "lat": -25.0648607, "lon": -50.1855094, "tags": {"addr:housenumber": "600", "addr:postcode": "84071-220", "addr:street": "Rua Professor F\u00e1bio Fanucchi", "amenity": "school", "name": "Escola Municipal Professora Zair Santos Nascimento", "source": "Prefeitura de Ponta Grossa - PR", "source_ref": "http://wiki.openstreetmap.org/wiki/Pt-br:WikiProject_Brazil/PR/Ponta_Grossa/Agreement"}}, {"type": "node", "id": 859537448, "lat": -25.1049439, "lon": -50.1094774, "tags": {"addr:housenumber": "183", "addr:postcode": "84032-320", "addr:street": "Rua Miguel Droppa", "amenity": "school", "name": "Escola Municipal D\u00e9rcia do Carmo Noviski", "source": "Prefeitura de Ponta Grossa - PR", "source_ref": "http://wiki.openstreetmap.org/wiki/Pt-br:WikiProject_Brazil/PR/Ponta_Grossa/Agreement"}}, {"type": "node", "id": 859537449, "lat": -25.0739228, "lon": -50.1833464, "tags": {"addr:city": "Ponta Grossa", "addr:housenumber": "1071", "addr:street": "Rua Coronel Jos\u00e9 Mir\u00f3", "amenity": "school", "name": "Escola Municipal Ivon Zardo", "source": "Prefeitura de Ponta Grossa - PR", "source_ref": "http://wiki.openstreetmap.org/wiki/Pt-br:WikiProject_Brazil/PR/Ponta_Grossa/Agreement"}}, {"type": "node", "id": 859537450, "lat": -25.0969356, "lon": -50.1942278, "tags": {"addr:housenumber": "350", "addr:postcode": "84052-440", "addr:street": "Rua Manoel Ferreira Martins", "amenity": "school", "name": "Escola Municipal Professora Hayd\u00eae Ferreira de Oli", "source": "Prefeitura de Ponta Grossa - PR", "source_ref": "http://wiki.openstreetmap.org/wiki/Pt-br:WikiProject_Brazil/PR/Ponta_Grossa/Agreement"}}, {"type": "node", "id": 859537451, "lat": -25.0733257, "lon": -50.1760583, "tags": {"addr:housenumber": "1312", "addr:postcode": "84070-220", "addr:street": "Rua Alberto de Oliveira", "amenity": "school", "name": "Escola Municipal Professor Rubens Edgard Furstenbe", "source": "Prefeitura de Ponta Grossa - PR", "source_ref": "http://wiki.openstreetmap.org/wiki/Pt-br:WikiProject_Brazil/PR/Ponta_Grossa/Agreement"}}, {"type": "node", "id": 859537452, "lat": -25.1174836, "lon": -50.2055614, "tags": {"addr:street": "Rua Papoula", "amenity": "school", "name": "Escola Estadual Jos\u00e9 Gomes do Amaral", "postal_code": "84060-060", "source": "Prefeitura de Ponta Grossa - PR", "source_ref": "http://wiki.openstreetmap.org/wiki/Pt-br:WikiProject_Brazil/PR/Ponta_Grossa/Agreement"}}, {"type": "node", "id": 859537453, "lat": -25.0786682, "lon": -50.1305403, "tags": {"addr:housenumber": "100", "addr:postcode": "84020-380", "addr:street": "Rua Washington Luiz", "amenity": "school", "name": "Escola Municipal Geny de Jesus Souza Ribas", "source": "Prefeitura de Ponta Grossa - PR", "source_ref": "http://wiki.openstreetmap.org/wiki/Pt-br:WikiProject_Brazil/PR/Ponta_Grossa/Agreement"}}, {"type": "node", "id": 859537454, "lat": -25.057974, "lon": -50.1615784, "tags": {"addr:housenumber": "337", "addr:postcode": "84001-970", "addr:street": "Rua Engenheiro Virg\u00ednio Milanese", "amenity": "school", "name": "Escola Municipal Prefeito Doutor Amadeu Puppi", "source": "Prefeitura de Ponta Grossa - PR", "source_ref": "http://wiki.openstreetmap.org/wiki/Pt-br:WikiProject_Brazil/PR/Ponta_Grossa/Agreement"}}, {"type": "node", "id": 859537455, "lat": -25.0852651, "lon": -50.2068025, "tags": {"addr:housenumber": "600", "addr:postcode": "84062-170", "addr:street": "Avenida Paul Harris", "amenity": "school", "name": "Escola Municipal Frederico Constante Degraf", "source": "Prefeitura de Ponta Grossa - PR", "source_ref": "http://wiki.openstreetmap.org/wiki/Pt-br:WikiProject_Brazil/PR/Ponta_Grossa/Agreement"}}, {"type": "node", "id": 859537456, "lat": -25.0934765, "lon": -50.1807223, "tags": {"addr:housenumber": "950", "addr:postcode": "84053-320", "addr:street": "Rua Londrina", "amenity": "school", "name": "Escola Municipal Prefeito Doutor Othon Mader", "source": "Prefeitura de Ponta Grossa - PR", "source_ref": "http://wiki.openstreetmap.org/wiki/Pt-br:WikiProject_Brazil/PR/Ponta_Grossa/Agreement"}}, {"type": "node", "id": 859537457, "lat": -25.1342485, "lon": -50.15628, "tags": {"addr:housenumber": "288", "addr:postcode": "84045-340", "addr:street": "Rua Jorge Holzmann", "amenity": "school", "name": "Escola Estadual Esp\u00edrito Santo", "source": "Prefeitura de Ponta Grossa - PR", "source_ref": "http://wiki.openstreetmap.org/wiki/Pt-br:WikiProject_Brazil/PR/Ponta_Grossa/Agreement"}}, {"type": "node", "id": 859537458, "lat": -25.0681498, "lon": -50.1734352}, {"type": "node", "id": 859537459, "lat": -25.0584525, "lon": -50.13958, "tags": {"addr:housenumber": "100", "addr:postcode": "84016-590", "addr:street": "Rua Paulo Kloth", "amenity": "school", "name": "Escola Municipal Professora Braulina Carneiro de Q", "source": "Prefeitura de Ponta Grossa - PR", "source_ref": "http://wiki.openstreetmap.org/wiki/Pt-br:WikiProject_Brazil/PR/Ponta_Grossa/Agreement"}}, {"type": "node", "id": 859537460, "lat": -25.145997, "lon": -50.166843, "tags": {"addr:housenumber": "160", "addr:postcode": "84046-130", "addr:street": "Rua Inamb\u00fa", "amenity": "school", "name": "Escola Municipal Professora Armida Frare Gr\u00e1cia", "source": "Prefeitura de Ponta Grossa - PR", "source_ref": "http://wiki.openstreetmap.org/wiki/Pt-br:WikiProject_Brazil/PR/Ponta_Grossa/Agreement"}}, {"type": "node", "id": 859537461, "lat": -25.0407165, "lon": -50.2443751, "tags": {"addr:housenumber": "73", "addr:postcode": "84001-970", "addr:street": "Rua Rio Dan\u00fabio", "amenity": "school", "name": "Escola Municipal Professora Zeneida de Freitas Sch", "source": "Prefeitura de Ponta Grossa - PR", "source_ref": "http://wiki.openstreetmap.org/wiki/Pt-br:WikiProject_Brazil/PR/Ponta_Grossa/Agreement"}}, {"type": "node", "id": 859537462, "lat": -25.0991006, "lon": -50.118935, "tags": {"addr:housenumber": "318", "addr:postcode": "84031-120", "addr:street": "Rua Nicolau Florenzano", "amenity": "school", "name": "Escola Municipal Deodoro Alves Quintiliano", "source": "Prefeitura de Ponta Grossa - PR", "source_ref": "http://wiki.openstreetmap.org/wiki/Pt-br:WikiProject_Brazil/PR/Ponta_Grossa/Agreement"}}, {"type": "node", "id": 859537463, "lat": -25.1285606, "lon": -50.1460008, "tags": {"addr:housenumber": "1720", "addr:postcode": "84046-290", "addr:street": "Rua Bocai\u00fava do Sul", "amenity": "school", "name": "Escola Municipal Professora Zahira Catta Preta Mel", "source": "Prefeitura de Ponta Grossa - PR", "source_ref": "http://wiki.openstreetmap.org/wiki/Pt-br:WikiProject_Brazil/PR/Ponta_Grossa/Agreement"}}, {"type": "node", "id": 859537464, "lat": -25.1202059, "lon": -50.158453, "tags": {"addr:housenumber": "216", "addr:postcode": "84045-540", "addr:street": "Pra\u00e7a Frei Elias Zulian", "amenity": "school", "name": "Escola Estadual Jesus Divino Oper\u00e1rio", "source": "Prefeitura de Ponta Grossa - PR", "source_ref": "http://wiki.openstreetmap.org/wiki/Pt-br:WikiProject_Brazil/PR/Ponta_Grossa/Agreement"}}, {"type": "node", "id": 859537465, "lat": -25.0546587, "lon": -50.223165, "tags": {"addr:housenumber": "680", "addr:postcode": "84064-030", "addr:street": "Rua Andorinha", "amenity": "school", "name": "Escola Municipal Professor Faris Ant\u00f4nio Michaele", "source": "Prefeitura de Ponta Grossa - PR", "source_ref": "http://wiki.openstreetmap.org/wiki/Pt-br:WikiProject_Brazil/PR/Ponta_Grossa/Agreement"}}, {"type": "node", "id": 859537466, "lat": -25.0650002, "lon": -50.2101522, "tags": {"addr:housenumber": "600", "addr:postcode": "84063-310", "addr:street": "Rua Santo Ant\u00f4nio", "amenity": "school", "name": "Escola Estadual Professora Sirley Jagas", "source": "Prefeitura de Ponta Grossa - PR", "source_ref": "http://wiki.openstreetmap.org/wiki/Pt-br:WikiProject_Brazil/PR/Ponta_Grossa/Agreement"}}, {"type": "node", "id": 859537468, "lat": -25.0663171, "lon": -50.1471003, "tags": {"addr:housenumber": "340", "addr:postcode": "84015-810", "addr:street": "Rua Amante Garcia", "amenity": "school", "name": "Escola Municipal Professor Paulo Grott", "source": "Prefeitura de Ponta Grossa - PR", "source_ref": "http://wiki.openstreetmap.org/wiki/Pt-br:WikiProject_Brazil/PR/Ponta_Grossa/Agreement"}}, {"type": "node", "id": 859537469, "lat": -25.0828327, "lon": -50.101927, "tags": {"addr:housenumber": "122", "addr:postcode": "84030-430", "addr:street": "Rua Alberto Kampe", "amenity": "school", "name": "Escola Municipal Prefeito Professor Heitor Ditzel", "source": "Prefeitura de Ponta Grossa - PR", "source_ref": "http://wiki.openstreetmap.org/wiki/Pt-br:WikiProject_Brazil/PR/Ponta_Grossa/Agreement"}}, {"type": "node", "id": 859537470, "lat": -25.1078276, "lon": -50.2011709, "tags": {"addr:housenumber": "171", "addr:postcode": "84060-020", "addr:street": "Rua Jos\u00e9 Alberto C\u00e1us", "amenity": "school", "name": "Escola Municipal Cyrillo Domingos Ricci", "source": "Prefeitura de Ponta Grossa - PR", "source_ref": "http://wiki.openstreetmap.org/wiki/Pt-br:WikiProject_Brazil/PR/Ponta_Grossa/Agreement"}}, {"type": "node", "id": 859537471, "lat": -25.0777389, "lon": -50.1909816, "tags": {"addr:housenumber": "313", "addr:postcode": "84070-490", "addr:street": "Rua Henrique Hennenberg", "amenity": "school", "name": "Escola Municipal Senador Fl\u00e1vio Carvalho Guimar\u00e3es", "source": "Prefeitura de Ponta Grossa - PR", "source_ref": "http://wiki.openstreetmap.org/wiki/Pt-br:WikiProject_Brazil/PR/Ponta_Grossa/Agreement"}}, {"type": "node", "id": 859537472, "lat": -25.1456456, "lon": -50.1700701, "tags": {"addr:housenumber": "422", "addr:postcode": "84001-970", "addr:street": "Rua Furiel", "amenity": "school", "name": "Escola Municipal Professor Guitil Federmann", "source": "Prefeitura de Ponta Grossa - PR", "source_ref": "http://wiki.openstreetmap.org/wiki/Pt-br:WikiProject_Brazil/PR/Ponta_Grossa/Agreement"}}, {"type": "node", "id": 859537473, "lat": -25.0944094, "lon": -50.0893698, "tags": {"addr:housenumber": "680", "addr:postcode": "84030-510", "addr:street": "Avenida Jo\u00e3o Pedro da Silva", "amenity": "school", "name": "Escola Municipal Prefeito Ernesto Guimar\u00e3es Vilela", "source": "Prefeitura de Ponta Grossa - PR", "source_ref": "http://wiki.openstreetmap.org/wiki/Pt-br:WikiProject_Brazil/PR/Ponta_Grossa/Agreement"}}, {"type": "node", "id": 859537474, "lat": -25.0685365, "lon": -50.1790003, "tags": {"addr:city": "Ponta Grossa", "addr:housenumber": "1000", "addr:postcode": "84070-430", "addr:street": "Rua Doutor Eug\u00eanio Jos\u00e9 Bocchi", "amenity": "school", "name": "Escola Municipal Professora Ecl\u00e9a dos Passos Horn", "source": "Prefeitura de Ponta Grossa - PR", "source_ref": "http://wiki.openstreetmap.org/wiki/Pt-br:WikiProject_Brazil/PR/Ponta_Grossa/Agreement"}}, {"type": "node", "id": 859537475, "lat": -25.1357141, "lon": -50.157134, "tags": {"addr:housenumber": "401", "addr:postcode": "84045-350", "addr:street": "Rua Latino Coelho", "amenity": "school", "name": "Escola Municipal Professora Ana de Barros Holzmann", "source": "Prefeitura de Ponta Grossa - PR", "source_ref": "http://wiki.openstreetmap.org/wiki/Pt-br:WikiProject_Brazil/PR/Ponta_Grossa/Agreement"}}, {"type": "node", "id": 859537476, "lat": -25.0480338, "lon": -50.140758, "tags": {"addr:housenumber": "404", "addr:postcode": "84001-970", "addr:street": "Avenida Israel", "amenity": "school", "name": "Escola Municipal Professor Sebasti\u00e3o dos Santos e", "source": "Prefeitura de Ponta Grossa - PR", "source_ref": "http://wiki.openstreetmap.org/wiki/Pt-br:WikiProject_Brazil/PR/Ponta_Grossa/Agreement"}}, {"type": "node", "id": 859537477, "lat": -25.0966994, "lon": -50.1167281}, {"type": "node", "id": 859537479, "lat": -25.0983863, "lon": -50.1592676, "tags": {"addr:city": "Ponta Grossa", "addr:housenumber": "537", "addr:postcode": "84001-970", "addr:street": "Rua Santana", "amenity": "school", "name": "Escola Estadual Medalha Milagrosa", "source": "Prefeitura de Ponta Grossa - PR", "source_ref": "http://wiki.openstreetmap.org/wiki/Pt-br:WikiProject_Brazil/PR/Ponta_Grossa/Agreement"}}, {"type": "node", "id": 859537480, "lat": -25.0827841, "lon": -50.1331707, "tags": {"addr:housenumber": "1192", "addr:postcode": "84020-050", "addr:street": "Rua Quinze de Setembro", "amenity": "school", "name": "Escola Municipal Professora Maria Laura Pereira", "source": "Prefeitura de Ponta Grossa - PR", "source_ref": "http://wiki.openstreetmap.org/wiki/Pt-br:WikiProject_Brazil/PR/Ponta_Grossa/Agreement"}}, {"type": "node", "id": 859537481, "lat": -25.1021086, "lon": -50.1618568, "tags": {"addr:housenumber": "636", "addr:postcode": "84050-000", "addr:street": "Rua Doutor Joaquim de Paula Xavier", "amenity": "school", "name": "Escola Municipal Loise Foltran De Lara", "source": "Prefeitura de Ponta Grossa - PR", "source_ref": "http://wiki.openstreetmap.org/wiki/Pt-br:WikiProject_Brazil/PR/Ponta_Grossa/Agreement"}}, {"type": "node", "id": 859537482, "lat": -25.0888169, "lon": -50.0901226, "tags": {"addr:street": "Avenida General Carlos Cavalcanti", "amenity": "school", "name": "Escola Municipal Zanoni Rogoski", "source": "Prefeitura de Ponta Grossa - PR", "source_ref": "http://wiki.openstreetmap.org/wiki/Pt-br:WikiProject_Brazil/PR/Ponta_Grossa/Agreement"}}, {"type": "node", "id": 859537483, "lat": -25.0917056, "lon": -50.2062938, "tags": {"addr:housenumber": "1007", "addr:postcode": "84061-370", "addr:street": "Rua Castanheira", "amenity": "college", "name": "Col\u00e9gio Estadual Professora Elzira Correia de S\u00e1", "source": "Prefeitura de Ponta Grossa - PR", "source_ref": "http://wiki.openstreetmap.org/wiki/Pt-br:WikiProject_Brazil/PR/Ponta_Grossa/Agreement"}}, {"type": "node", "id": 859537484, "lat": -25.0967579, "lon": -50.2090644, "tags": {"addr:housenumber": "175", "addr:postcode": "84001-970", "addr:street": "Rua Cajarana", "amenity": "school", "name": "Escola Municipal Ludovico Ant\u00f4nio Egg", "source": "Prefeitura de Ponta Grossa - PR", "source_ref": "http://wiki.openstreetmap.org/wiki/Pt-br:WikiProject_Brazil/PR/Ponta_Grossa/Agreement"}}, {"type": "node", "id": 859537485, "lat": -25.1191761, "lon": -50.1022335, "tags": {"addr:street": "Rua Santa M\u00f4nica", "amenity": "school", "name": "Escola Estadual Eug\u00eanio Malanski", "postal_code": "84033-240", "source": "Prefeitura de Ponta Grossa - PR", "source_ref": "http://wiki.openstreetmap.org/wiki/Pt-br:WikiProject_Brazil/PR/Ponta_Grossa/Agreement"}}, {"type": "node", "id": 859537486, "lat": -25.1142285, "lon": -50.1557444, "tags": {"addr:housenumber": "650", "addr:postcode": "84045-000", "addr:street": "Avenida Visconde de Mau\u00e1", "amenity": "school", "name": "Escola Municipal Vila Oficinas", "source": "Prefeitura de Ponta Grossa - PR", "source_ref": "http://wiki.openstreetmap.org/wiki/Pt-br:WikiProject_Brazil/PR/Ponta_Grossa/Agreement"}}, {"type": "node", "id": 859537487, "lat": -25.1272191, "lon": -50.178218, "tags": {"addr:housenumber": "78", "addr:postcode": "84046-015", "addr:street": "Rua Doutor Nilton Luiz de Castro", "amenity": "school", "name": "Escola Municipal Padre Jos\u00e9 Bugatti", "source": "Prefeitura de Ponta Grossa - PR", "source_ref": "http://wiki.openstreetmap.org/wiki/Pt-br:WikiProject_Brazil/PR/Ponta_Grossa/Agreement"}}, {"type": "node", "id": 859537488, "lat": -25.1245892, "lon": -50.1604402, "tags": {"addr:housenumber": "216", "addr:postcode": "84045-540", "addr:street": "Pra\u00e7a Frei Elias Zulian", "amenity": "school", "name": "Escola Municipal Frei Elias Zulian", "source": "Prefeitura de Ponta Grossa - PR", "source_ref": "http://wiki.openstreetmap.org/wiki/Pt-br:WikiProject_Brazil/PR/Ponta_Grossa/Agreement"}}, {"type": "node", "id": 859537490, "lat": -25.0668958, "lon": -50.1467174, "tags": {"addr:street": "Rua Amante Garcia", "amenity": "school", "name": "Escola Estadual Monteiro Lobato", "postal_code": "84015-810", "source": "Prefeitura de Ponta Grossa - PR", "source_ref": "http://wiki.openstreetmap.org/wiki/Pt-br:WikiProject_Brazil/PR/Ponta_Grossa/Agreement"}}, {"type": "node", "id": 859537492, "lat": -25.0905168, "lon": -50.104463, "tags": {"addr:street": "Rua Coronel Camis\u00e3o", "amenity": "school", "name": "Escola Estadual Professora H\u00e1lia Terezinha Gruba", "postal_code": "84031-020", "source": "Prefeitura de Ponta Grossa - PR", "source_ref": "http://wiki.openstreetmap.org/wiki/Pt-br:WikiProject_Brazil/PR/Ponta_Grossa/Agreement"}}, {"type": "node", "id": 859537494, "lat": -25.0931376, "lon": -50.1590652, "tags": {"addr:city": "Ponta Grossa", "addr:housenumber": "128", "addr:postcode": "84010-670", "addr:street": "Pra\u00e7a Bar\u00e3o do Rio Branco", "addr:suburb": "Centro", "amenity": "school", "name": "CEEBJA Professor Paschoal Salles Rosa", "source": "Prefeitura de Ponta Grossa - PR", "source_ref": "http://wiki.openstreetmap.org/wiki/Pt-br:WikiProject_Brazil/PR/Ponta_Grossa/Agreement"}}, {"type": "node", "id": 859537495, "lat": -25.0780484, "lon": -50.1302221}, {"type": "node", "id": 859537497, "lat": -25.0545114, "lon": -50.2231335, "tags": {"addr:housenumber": "666", "addr:postcode": "84064-030", "addr:street": "Rua Andorinha", "amenity": "school", "name": "Escola Estadual Ana Divanir Borato", "source": "Prefeitura de Ponta Grossa - PR", "source_ref": "http://wiki.openstreetmap.org/wiki/Pt-br:WikiProject_Brazil/PR/Ponta_Grossa/Agreement"}}, {"type": "node", "id": 859537498, "lat": -25.0788394, "lon": -50.15026, "tags": {"addr:housenumber": "1000", "addr:postcode": "84016-000", "addr:street": "Avenida Rocha Pombo", "amenity": "school", "name": "Escola Municipal Professora Adelaide Thom\u00e9 Chamma", "source": "Prefeitura de Ponta Grossa - PR", "source_ref": "http://wiki.openstreetmap.org/wiki/Pt-br:WikiProject_Brazil/PR/Ponta_Grossa/Agreement"}}, {"type": "node", "id": 859537499, "lat": -25.097002, "lon": -50.1732686, "tags": {"addr:housenumber": "1145", "addr:postcode": "84051-000", "addr:street": "Avenida Visconde de Taunay", "amenity": "school", "name": "Escola Estadual Professor Becker e Silva", "source": "Prefeitura de Ponta Grossa - PR", "source_ref": "http://wiki.openstreetmap.org/wiki/Pt-br:WikiProject_Brazil/PR/Ponta_Grossa/Agreement"}}, {"type": "node", "id": 859537500, "lat": -25.106685, "lon": -50.2212297, "tags": {"addr:housenumber": "133", "addr:postcode": "84001-970", "addr:street": "Rua Antenor de Louren\u00e7o Oliveira", "amenity": "school", "name": "Escola Municipal Professora Shirley Aggi Moura", "source": "Prefeitura de Ponta Grossa - PR", "source_ref": "http://wiki.openstreetmap.org/wiki/Pt-br:WikiProject_Brazil/PR/Ponta_Grossa/Agreement"}}, {"type": "node", "id": 859537502, "lat": -25.1027064, "lon": -50.1757419, "tags": {"addr:housenumber": "501", "addr:postcode": "84051-530", "addr:street": "Rua Euz\u00e9bio da Motta", "amenity": "school", "name": "Escola Municipal Professor Aristeu Costa Pinto", "source": "Prefeitura de Ponta Grossa - PR", "source_ref": "http://wiki.openstreetmap.org/wiki/Pt-br:WikiProject_Brazil/PR/Ponta_Grossa/Agreement"}}, {"type": "node", "id": 1031007468, "lat": -25.068543, "lon": -50.172512}, {"type": "node", "id": 1770952995, "lat": -25.0899209, "lon": -50.1595836}, {"type": "node", "id": 1770952996, "lat": -25.0898529, "lon": -50.1590364}, {"type": "node", "id": 1770952997, "lat": -25.0900181, "lon": -50.1590042}, {"type": "node", "id": 1770952998, "lat": -25.0900861, "lon": -50.1595728}, {"type": "node", "id": 2086131282, "lat": -25.0976542, "lon": -50.1603634, "tags": {"amenity": "school", "name": "Centro Europeu", "source": "Survey"}}, {"type": "node", "id": 2286165327, "lat": -25.0918467, "lon": -50.1060864}, {"type": "node", "id": 2286165335, "lat": -25.092075, "lon": -50.1030515}, {"type": "node", "id": 2286165346, "lat": -25.0929689, "lon": -50.1053783}, {"type": "node", "id": 2286165349, "lat": -25.089273, "lon": -50.1059}, {"type": "node", "id": 2286165351, "lat": -25.0896016, "lon": -50.1064197}, {"type": "node", "id": 2286165355, "lat": -25.0997919, "lon": -50.101115}, {"type": "node", "id": 2286165367, "lat": -25.0928547, "lon": -50.106537}, {"type": "node", "id": 2286165373, "lat": -25.0938446, "lon": -50.1103243}, {"type": "node", "id": 2286165375, "lat": -25.0886269, "lon": -50.0920907}, {"type": "node", "id": 2286165377, "lat": -25.0887131, "lon": -50.0919499}, {"type": "node", "id": 2286165379, "lat": -25.0887593, "lon": -50.1022831}, {"type": "node", "id": 2286165385, "lat": -25.0897704, "lon": -50.1066631}, {"type": "node", "id": 2286165398, "lat": -25.0984099, "lon": -50.1007382}, {"type": "node", "id": 2286165401, "lat": -25.0914816, "lon": -50.1065585}, {"type": "node", "id": 2286165403, "lat": -25.0894018, "lon": -50.1062004}, {"type": "node", "id": 2286165409, "lat": -25.089318, "lon": -50.1060677}, {"type": "node", "id": 2286165412, "lat": -25.0924467, "lon": -50.1030649}, {"type": "node", "id": 2619185854, "lat": -25.0693032, "lon": -50.1636175}, {"type": "node", "id": 2619185855, "lat": -25.0694443, "lon": -50.1633061}, {"type": "node", "id": 2619185856, "lat": -25.0700182, "lon": -50.163574}, {"type": "node", "id": 2619185857, "lat": -25.0698675, "lon": -50.1639077}, {"type": "node", "id": 2619186009, "lat": -25.0697922, "lon": -50.1634534}, {"type": "node", "id": 2619186010, "lat": -25.0699335, "lon": -50.1631308}, {"type": "node", "id": 2619186011, "lat": -25.0701595, "lon": -50.1632514}, {"type": "node", "id": 2619222904, "lat": -25.076274, "lon": -50.1577173}, {"type": "node", "id": 2619222905, "lat": -25.0751498, "lon": -50.1571098}, {"type": "node", "id": 2619222906, "lat": -25.07583, "lon": -50.1555753}, {"type": "node", "id": 2619222907, "lat": -25.0769543, "lon": -50.1561828}, {"type": "node", "id": 2878355477, "lat": -25.0499931, "lon": -50.1324682}, {"type": "node", "id": 2878355478, "lat": -25.050915, "lon": -50.1305364}, {"type": "node", "id": 2878355479, "lat": -25.0500629, "lon": -50.1300909}, {"type": "node", "id": 2878355480, "lat": -25.0508895, "lon": -50.1291507}, {"type": "node", "id": 2878355482, "lat": -25.0515196, "lon": -50.1285415}, {"type": "node", "id": 2878355483, "lat": -25.0545598, "lon": -50.1303003}, {"type": "node", "id": 2878355484, "lat": -25.0530195, "lon": -50.1335824}, {"type": "node", "id": 2878355485, "lat": -25.0517517, "lon": -50.1333323}, {"type": "node", "id": 2878355486, "lat": -25.0504972, "lon": -50.1327898}, {"type": "node", "id": 3103044507, "lat": -25.0697759, "lon": -50.1634894}, {"type": "node", "id": 3103044508, "lat": -25.0700019, "lon": -50.16361}, {"type": "node", "id": 3119758709, "lat": -25.0820883, "lon": -50.1609099}, {"type": "node", "id": 3119758710, "lat": -25.0822681, "lon": -50.1608401}, {"type": "node", "id": 3948074772, "lat": -25.0494247, "lon": -50.1320332}, {"type": "node", "id": 3948074773, "lat": -25.049306, "lon": -50.1314709}, {"type": "node", "id": 3948074774, "lat": -25.0496595, "lon": -50.1307306}, {"type": "node", "id": 4229272376, "lat": -25.074663, "lon": -50.1644531, "tags": {"addr:city": "Ponta Grossa", "addr:housenumber": "1627", "addr:postcode": "84015-050", "addr:street": "Avenida Anita Garibaldi", "addr:suburb": "\u00d3rf\u00e3s", "amenity": "school", "ele": "900", "name": "Escola Desafio", "operator": "Geovanni Chrestani"}}, {"type": "node", "id": 4335316999, "lat": -25.0928345, "lon": -50.1634663}, {"type": "node", "id": 4335317000, "lat": -25.0927987, "lon": -50.1632239}, {"type": "node", "id": 4335317001, "lat": -25.0925773, "lon": -50.1632637}, {"type": "node", "id": 4335317002, "lat": -25.0926131, "lon": -50.1635061}, {"type": "node", "id": 4335317003, "lat": -25.0927496, "lon": -50.1634816}, {"type": "node", "id": 4480989292, "lat": -25.1041319, "lon": -50.1798428, "tags": {"addr:housenumber": "120", "addr:postcode": "84051-370", "addr:street": "Rua Alfredo Munhoz", "amenity": "school", "name": "Escola Municipal Professor Pl\u00e1cido Cardon", "name:pt": "Escola Municipal Professor Pl\u00e1cido Cardon", "phone": "+554239011614"}}, {"type": "node", "id": 4637220577, "lat": -25.0834928, "lon": -50.1681581}, {"type": "node", "id": 4637220578, "lat": -25.0842011, "lon": -50.1679637}, {"type": "node", "id": 4637220579, "lat": -25.0845092, "lon": -50.169404}, {"type": "node", "id": 4637220580, "lat": -25.0844692, "lon": -50.1694261}, {"type": "node", "id": 4637220581, "lat": -25.0836649, "lon": -50.1690063}, {"type": "node", "id": 4646293529, "lat": -25.0980681, "lon": -50.1195608}, {"type": "node", "id": 4646293530, "lat": -25.0979625, "lon": -50.1168931}, {"type": "node", "id": 4646293532, "lat": -25.0967903, "lon": -50.1194987}, {"type": "node", "id": 4646293537, "lat": -25.0945276, "lon": -50.1146068}, {"type": "node", "id": 4646293538, "lat": -25.0948276, "lon": -50.1145103}, {"type": "node", "id": 4646293539, "lat": -25.0947383, "lon": -50.113854}, {"type": "node", "id": 4646293540, "lat": -25.0944258, "lon": -50.1139187}, {"type": "node", "id": 4674408654, "lat": -25.0698556, "lon": -50.1462905}, {"type": "node", "id": 4674408655, "lat": -25.0702854, "lon": -50.1470853}, {"type": "node", "id": 4674408656, "lat": -25.071231, "lon": -50.1464922}, {"type": "node", "id": 4674408657, "lat": -25.0707904, "lon": -50.1456737}, {"type": "node", "id": 4696248861, "lat": -25.1297489, "lon": -50.1504956, "tags": {"entrance": "yes"}}, {"type": "node", "id": 4942023735, "lat": -25.0502063, "lon": -50.1298736}, {"type": "node", "id": 4942227169, "lat": -25.0512924, "lon": -50.1331848}, {"type": "node", "id": 4942227170, "lat": -25.0525912, "lon": -50.1335187}, {"type": "node", "id": 5012612800, "lat": -25.0884731, "lon": -50.0894835}, {"type": "node", "id": 5012612801, "lat": -25.0869267, "lon": -50.0901014}, {"type": "node", "id": 5012612802, "lat": -25.0868089, "lon": -50.0891338}, {"type": "node", "id": 5012612803, "lat": -25.0862787, "lon": -50.089207}, {"type": "node", "id": 5012612804, "lat": -25.0863744, "lon": -50.088833}, {"type": "node", "id": 5012612805, "lat": -25.0863744, "lon": -50.0884996}, {"type": "node", "id": 5012612806, "lat": -25.0863818, "lon": -50.0880849}, {"type": "node", "id": 5012612807, "lat": -25.0862051, "lon": -50.0876215}, {"type": "node", "id": 5012612808, "lat": -25.0860136, "lon": -50.0871824}, {"type": "node", "id": 5284341623, "lat": -25.0707503, "lon": -50.1159225}, {"type": "node", "id": 5284341624, "lat": -25.0701704, "lon": -50.1161317}, {"type": "node", "id": 5284367911, "lat": -25.0709863, "lon": -50.1223562}, {"type": "node", "id": 5284367912, "lat": -25.0712107, "lon": -50.1224553}, {"type": "node", "id": 5284367913, "lat": -25.0714126, "lon": -50.1220553}, {"type": "node", "id": 5284367914, "lat": -25.0710215, "lon": -50.1211634}, {"type": "node", "id": 5284367915, "lat": -25.0705791, "lon": -50.1213864}, {"type": "node", "id": 5284388711, "lat": -25.0667461, "lon": -50.1220474}, {"type": "node", "id": 5284388712, "lat": -25.0674569, "lon": -50.1216899}, {"type": "node", "id": 5284399685, "lat": -25.0739809, "lon": -50.1219342}, {"type": "node", "id": 5284413371, "lat": -25.0738067, "lon": -50.1220469}, {"type": "node", "id": 5284413372, "lat": -25.07367, "lon": -50.1217493}, {"type": "node", "id": 5284413373, "lat": -25.0738463, "lon": -50.1216502}, {"type": "node", "id": 5422301209, "lat": -25.1047617, "lon": -50.1256638}, {"type": "node", "id": 5422301210, "lat": -25.1053859, "lon": -50.1247036}, {"type": "node", "id": 5422301211, "lat": -25.1057842, "lon": -50.1249128}, {"type": "node", "id": 5422301212, "lat": -25.1052135, "lon": -50.125806}, {"type": "node", "id": 5457830426, "lat": -25.0897394, "lon": -50.1569043}, {"type": "node", "id": 5457833869, "lat": -25.0891213, "lon": -50.1583566}, {"type": "node", "id": 5457833870, "lat": -25.0890288, "lon": -50.1577175}, {"type": "node", "id": 5457833871, "lat": -25.0898422, "lon": -50.157574}, {"type": "node", "id": 5457833872, "lat": -25.0899347, "lon": -50.1582131}, {"type": "node", "id": 5457833878, "lat": -25.0868205, "lon": -50.1604213}, {"type": "node", "id": 5457833879, "lat": -25.0867686, "lon": -50.16016}, {"type": "node", "id": 5457833880, "lat": -25.0862709, "lon": -50.1602}, {"type": "node", "id": 5457833881, "lat": -25.0862788, "lon": -50.1605125}, {"type": "node", "id": 5457833882, "lat": -25.0862387, "lon": -50.1602483}, {"type": "node", "id": 5608257545, "lat": -25.0920046, "lon": -50.1049438}, {"type": "node", "id": 5608257546, "lat": -25.0919317, "lon": -50.1052308}, {"type": "node", "id": 5608257547, "lat": -25.0918904, "lon": -50.1059201}, {"type": "node", "id": 5659978700, "lat": -25.0710358, "lon": -50.1168054}, {"type": "node", "id": 5659978701, "lat": -25.0705438, "lon": -50.1169874}, {"type": "node", "id": 5750714268, "lat": -25.0862119, "lon": -50.0860762}, {"type": "node", "id": 5750714269, "lat": -25.0888733, "lon": -50.0867116}, {"type": "node", "id": 6260873767, "lat": -25.0918967, "lon": -50.1367739, "tags": {"amenity": "school", "name": "Col\u00e9gio Estadual General Os\u00f3rio"}}, {"type": "node", "id": 6380908940, "lat": -25.082059, "lon": -50.1357819}, {"type": "node", "id": 6380908941, "lat": -25.082547, "lon": -50.1366674}, {"type": "node", "id": 6380908942, "lat": -25.0839802, "lon": -50.135684}, {"type": "node", "id": 6380908943, "lat": -25.0825845, "lon": -50.1355822, "tags": {"amenity": "school", "name": "Col\u00e9gio Sagrada Fam\u00edlia"}}, {"type": "node", "id": 6389074097, "lat": -25.0515767, "lon": -50.1332706}, {"type": "node", "id": 6389074100, "lat": -25.051126, "lon": -50.1331218}, {"type": "node", "id": 6389074101, "lat": -25.0509245, "lon": -50.1330694}, {"type": "node", "id": 6389074131, "lat": -25.0500885, "lon": -50.1325291}, {"type": "node", "id": 6389074134, "lat": -25.0520873, "lon": -50.1288726}, {"type": "node", "id": 6389074135, "lat": -25.0526424, "lon": -50.1291848}, {"type": "node", "id": 6605849983, "lat": -25.0689877, "lon": -50.1727579}, {"type": "node", "id": 6605849984, "lat": -25.0685448, "lon": -50.1736862}, {"type": "node", "id": 6802158258, "lat": -25.0968286, "lon": -50.1186986}, {"type": "node", "id": 6802158259, "lat": -25.0967883, "lon": -50.1174696}, {"type": "node", "id": 6802158260, "lat": -25.0967238, "lon": -50.1174721}, {"type": "node", "id": 6802158261, "lat": -25.0967641, "lon": -50.1187012}, {"type": "node", "id": 6844998543, "lat": -25.1365871, "lon": -50.1390374}, {"type": "node", "id": 6844998544, "lat": -25.1358538, "lon": -50.1391232}, {"type": "node", "id": 6844998545, "lat": -25.1357542, "lon": -50.1381201}, {"type": "node", "id": 6844998546, "lat": -25.1362119, "lon": -50.1384175}, {"type": "node", "id": 6844998547, "lat": -25.1362759, "lon": -50.1386593}, {"type": "node", "id": 6844998548, "lat": -25.1363527, "lon": -50.1387544}, {"type": "node", "id": 6844998549, "lat": -25.1364511, "lon": -50.1388206}, {"type": "node", "id": 6844998550, "lat": -25.1362302, "lon": -50.1382917}, {"type": "node", "id": 6844998551, "lat": -25.1362276, "lon": -50.1385437}, {"type": "node", "id": 6844998552, "lat": -25.1365628, "lon": -50.1388523}, {"type": "node", "id": 7009829737, "lat": -25.0526672, "lon": -50.1292122}, {"type": "node", "id": 7009829738, "lat": -25.053027, "lon": -50.1294177}, {"type": "node", "id": 7516035692, "lat": -25.1776605, "lon": -50.1427224, "tags": {"addr:city": "Ponta Grossa", "addr:street": "Rua Caraj\u00e1s", "amenity": "school", "name": "Escola Municipal Deodoro Alves Quintiliano"}}, {"type": "node", "id": 7516035693, "lat": -25.1774935, "lon": -50.1421923, "tags": {"amenity": "school", "name": "Centro Municipal de Educa\u00e7\u00e3o Infantil Augusto Canto"}}, {"type": "node", "id": 7631297792, "lat": -25.0870613, "lon": -50.1616015}, {"type": "node", "id": 7631297793, "lat": -25.0865026, "lon": -50.1617074}, {"type": "node", "id": 7631297794, "lat": -25.0867449, "lon": -50.1601343}, {"type": "node", "id": 7631297795, "lat": -25.0864206, "lon": -50.1613829}, {"type": "node", "id": 7631297796, "lat": -25.0869167, "lon": -50.1608786}, {"type": "node", "id": 7631297797, "lat": -25.0870491, "lon": -50.1616323}, {"type": "node", "id": 7631297798, "lat": -25.0864698, "lon": -50.1616929}, {"type": "node", "id": 7710093189, "lat": -25.0973023, "lon": -50.10993}, {"type": "node", "id": 7710093190, "lat": -25.0981743, "lon": -50.1070493}, {"type": "node", "id": 7710093191, "lat": -25.0976144, "lon": -50.104111}, {"type": "node", "id": 7710093192, "lat": -25.0986346, "lon": -50.1049055}, {"type": "node", "id": 7710093193, "lat": -25.0984682, "lon": -50.1058584}, {"type": "node", "id": 7710093194, "lat": -25.0972343, "lon": -50.1100159}, {"type": "node", "id": 7710093195, "lat": -25.097618, "lon": -50.1088303}, {"type": "node", "id": 7710093196, "lat": -25.0962797, "lon": -50.1101312}, {"type": "node", "id": 7710093197, "lat": -25.0959396, "lon": -50.110158}, {"type": "node", "id": 7710093199, "lat": -25.0917689, "lon": -50.1062393}, {"type": "node", "id": 7710093200, "lat": -25.091628, "lon": -50.1064083}, {"type": "node", "id": 7710093201, "lat": -25.0897455, "lon": -50.1066504}, {"type": "node", "id": 7710093202, "lat": -25.0898032, "lon": -50.1066678}, {"type": "node", "id": 7710093203, "lat": -25.0896447, "lon": -50.1065116}, {"type": "node", "id": 7710093204, "lat": -25.0895372, "lon": -50.1063473}, {"type": "node", "id": 7710093205, "lat": -25.0897267, "lon": -50.1065954}, {"type": "node", "id": 7710093206, "lat": -25.0897327, "lon": -50.1066296}, {"type": "node", "id": 7710093207, "lat": -25.0886597, "lon": -50.1015401}, {"type": "node", "id": 7710093208, "lat": -25.0886086, "lon": -50.0939065}, {"type": "node", "id": 7806354269, "lat": -25.0955777, "lon": -50.0963071}, {"type": "node", "id": 7806354270, "lat": -25.0957793, "lon": -50.0964358}, {"type": "node", "id": 7806354271, "lat": -25.0953639, "lon": -50.0962132}, {"type": "node", "id": 7806354272, "lat": -25.0962529, "lon": -50.0968462}, {"type": "node", "id": 7806354273, "lat": -25.096457, "lon": -50.0970554}, {"type": "node", "id": 7806354274, "lat": -25.0966173, "lon": -50.0973773}, {"type": "node", "id": 7806354275, "lat": -25.0944118, "lon": -50.0961328}, {"type": "node", "id": 7806354276, "lat": -25.0932871, "lon": -50.0953093}, {"type": "node", "id": 7806354277, "lat": -25.0930126, "lon": -50.0957599}, {"type": "node", "id": 7806354278, "lat": -25.0913803, "lon": -50.0964654}, {"type": "node", "id": 7806354279, "lat": -25.0906224, "lon": -50.0933862}, {"type": "node", "id": 7806354280, "lat": -25.089618, "lon": -50.0926249}, {"type": "node", "id": 7806354281, "lat": -25.0968116, "lon": -50.0980103}, {"type": "node", "id": 7806354282, "lat": -25.0961096, "lon": -50.0987908}, {"type": "node", "id": 7806354283, "lat": -25.0958825, "lon": -50.0993568}, {"type": "node", "id": 7806354284, "lat": -25.0957623, "lon": -50.0994587}, {"type": "node", "id": 7806354285, "lat": -25.094951, "lon": -50.096578}, {"type": "node", "id": 7806354286, "lat": -25.096072, "lon": -50.0991355}, {"type": "node", "id": 7806354287, "lat": -25.0952826, "lon": -50.0998677}, {"type": "node", "id": 7806354288, "lat": -25.0973606, "lon": -50.0984985}, {"type": "node", "id": 7806354289, "lat": -25.0966416, "lon": -50.0989974}, {"type": "node", "id": 7806354290, "lat": -25.0981573, "lon": -50.0981337}, {"type": "node", "id": 7806354291, "lat": -25.0953357, "lon": -50.0999605}, {"type": "node", "id": 7806354292, "lat": -25.1007071, "lon": -50.0972637}, {"type": "node", "id": 8445015652, "lat": -25.0820476, "lon": -50.1626432}, {"type": "node", "id": 8445015654, "lat": -25.0826594, "lon": -50.1610641}, {"type": "node", "id": 8445015655, "lat": -25.0812852, "lon": -50.1622512}, {"type": "node", "id": 8445015656, "lat": -25.0812418, "lon": -50.1613941}, {"type": "node", "id": 8445015657, "lat": -25.0812126, "lon": -50.1606296}, {"type": "node", "id": 8445015658, "lat": -25.0827045, "lon": -50.1621304}, {"type": "node", "id": 8445015659, "lat": -25.0827179, "lon": -50.1629342}, {"type": "node", "id": 8445052805, "lat": -25.0924201, "lon": -50.1600047}, {"type": "node", "id": 8445052806, "lat": -25.0929879, "lon": -50.1592696}, {"type": "node", "id": 8445052807, "lat": -25.0923321, "lon": -50.1593477}, {"type": "node", "id": 8445052808, "lat": -25.0930836, "lon": -50.1599072}, {"type": "node", "id": 8456336367, "lat": -25.0863232, "lon": -50.1543484}, {"type": "node", "id": 8456336368, "lat": -25.0859804, "lon": -50.1548556}, {"type": "node", "id": 8456336369, "lat": -25.08548, "lon": -50.1544762}, {"type": "node", "id": 8456336370, "lat": -25.0855145, "lon": -50.1542529}, {"type": "node", "id": 8456336373, "lat": -25.0858691, "lon": -50.1539489}, {"type": "node", "id": 8456336380, "lat": -25.0860542, "lon": -50.1538332}, {"type": "node", "id": 8456336381, "lat": -25.0861631, "lon": -50.1538155}, {"type": "node", "id": 8456336382, "lat": -25.0862632, "lon": -50.1538726}, {"type": "node", "id": 8456336385, "lat": -25.0864081, "lon": -50.1541907}, {"type": "node", "id": 8759500592, "lat": -25.0671717, "lon": -50.1210964}, {"type": "node", "id": 8759500593, "lat": -25.0664357, "lon": -50.1214613}, {"type": "node", "id": 9852505615, "lat": -25.1314028, "lon": -50.1487872}, {"type": "node", "id": 9852505616, "lat": -25.131228, "lon": -50.1488811}, {"type": "node", "id": 9852540317, "lat": -25.1309997, "lon": -50.1496133}, {"type": "node", "id": 9852540318, "lat": -25.1310774, "lon": -50.1507694}, {"type": "node", "id": 9852540319, "lat": -25.131211, "lon": -50.1510268}, {"type": "node", "id": 9852540320, "lat": -25.1312668, "lon": -50.1513648}, {"type": "node", "id": 9852540321, "lat": -25.1310337, "lon": -50.1517376}, {"type": "node", "id": 9852540322, "lat": -25.1309803, "lon": -50.1520568}, {"type": "node", "id": 9852540323, "lat": -25.130117, "lon": -50.1524498}, {"type": "node", "id": 9852540324, "lat": -25.1298705, "lon": -50.1493397}, {"type": "node", "id": 9852540325, "lat": -25.1298548, "lon": -50.1503107}, {"type": "node", "id": 9852540326, "lat": -25.1297091, "lon": -50.1503804}, {"type": "node", "id": 9852540327, "lat": -25.1297649, "lon": -50.1505467}, {"type": "node", "id": 9852540328, "lat": -25.1298147, "lon": -50.1507922}, {"type": "node", "id": 9852540329, "lat": -25.1297977, "lon": -50.1508136}, {"type": "node", "id": 9852540330, "lat": -25.1297953, "lon": -50.1509397}, {"type": "node", "id": 9852540331, "lat": -25.1296975, "lon": -50.1514066, "tags": {"entrance": "yes"}}, {"type": "node", "id": 9852540332, "lat": -25.129683, "lon": -50.151457}, {"type": "node", "id": 9852540333, "lat": -25.1297517, "lon": -50.1515183}, {"type": "node", "id": 9852540334, "lat": -25.1298876, "lon": -50.1517092}, {"type": "node", "id": 9852540335, "lat": -25.1300672, "lon": -50.1522848}, {"type": "node", "id": 9852540336, "lat": -25.1301741, "lon": -50.1524243}, {"type": "node", "id": 9852540337, "lat": -25.1303829, "lon": -50.1523867}, {"type": "node", "id": 9852540338, "lat": -25.1308686, "lon": -50.1521453}, {"type": "node", "id": 9852540339, "lat": -25.1310361, "lon": -50.151861}, {"type": "node", "id": 9852540340, "lat": -25.1310628, "lon": -50.1515901}, {"type": "node", "id": 9852540341, "lat": -25.1312085, "lon": -50.151507}, {"type": "node", "id": 9852540342, "lat": -25.1312741, "lon": -50.1511717}, {"type": "node", "id": 9852540343, "lat": -25.1311235, "lon": -50.1508954}, {"type": "node", "id": 9852540344, "lat": -25.1310094, "lon": -50.1505333}, {"type": "node", "id": 9852540345, "lat": -25.1309633, "lon": -50.1502007}, {"type": "node", "id": 9852540346, "lat": -25.1309511, "lon": -50.1499137}, {"type": "node", "id": 9852540347, "lat": -25.1311357, "lon": -50.1490313}, {"type": "node", "id": 9852540348, "lat": -25.1315922, "lon": -50.1487121}, {"type": "node", "id": 9852540349, "lat": -25.1299288, "lon": -50.1484627}, {"type": "node", "id": 9888860100, "lat": -25.0891387, "lon": -50.1638051}, {"type": "node", "id": 9888860101, "lat": -25.0896913, "lon": -50.163676}, {"type": "node", "id": 9888860102, "lat": -25.0897827, "lon": -50.1641527}, {"type": "node", "id": 9901542560, "lat": -25.0895793, "lon": -50.1568741}, {"type": "node", "id": 9901542561, "lat": -25.0897329, "lon": -50.1568512}, {"type": "node", "id": 9901542562, "lat": -25.0897453, "lon": -50.1569522}, {"type": "node", "id": 9901542563, "lat": -25.0895917, "lon": -50.1569751}, {"type": "node", "id": 9924289938, "lat": -25.0865669, "lon": -50.1703025}, {"type": "node", "id": 9924289939, "lat": -25.0868426, "lon": -50.1695448}, {"type": "node", "id": 9924289940, "lat": -25.0857762, "lon": -50.1694067}, {"type": "node", "id": 9924289941, "lat": -25.0856657, "lon": -50.1698781}, {"type": "node", "id": 9924289942, "lat": -25.08567, "lon": -50.1699136}, {"type": "node", "id": 9924289943, "lat": -25.0856851, "lon": -50.1699357}, {"type": "node", "id": 9924289944, "lat": -25.0857204, "lon": -50.1699498}, {"type": "node", "id": 9924427906, "lat": -25.0915681, "lon": -50.1362566}, {"type": "node", "id": 9924427907, "lat": -25.0915754, "lon": -50.1362474}, {"type": "node", "id": 9924427908, "lat": -25.0915861, "lon": -50.1362439}, {"type": "node", "id": 9924427909, "lat": -25.0920507, "lon": -50.1363283}, {"type": "node", "id": 9924427910, "lat": -25.0918819, "lon": -50.1371337}, {"type": "node", "id": 9924427911, "lat": -25.0918594, "lon": -50.1372175}, {"type": "node", "id": 9924427912, "lat": -25.0918181, "lon": -50.1373094}, {"type": "node", "id": 9924427913, "lat": -25.0914289, "lon": -50.137251}, {"type": "node", "id": 9924667433, "lat": -25.0591553, "lon": -50.1757903}, {"type": "node", "id": 9924667434, "lat": -25.0586475, "lon": -50.1752807}, {"type": "node", "id": 9924667435, "lat": -25.0584276, "lon": -50.1764448}, {"type": "node", "id": 9924667436, "lat": -25.0590083, "lon": -50.1765776}, {"type": "node", "id": 9926695053, "lat": -25.0778394, "lon": -50.1303812}, {"type": "node", "id": 9926695054, "lat": -25.0778422, "lon": -50.1303685}, {"type": "node", "id": 9926695055, "lat": -25.0778491, "lon": -50.1303576}, {"type": "node", "id": 9926695056, "lat": -25.0784759, "lon": -50.1299316}, {"type": "node", "id": 9926695057, "lat": -25.0784948, "lon": -50.1299246}, {"type": "node", "id": 9926695058, "lat": -25.0785111, "lon": -50.1299254}, {"type": "node", "id": 9926695059, "lat": -25.0785248, "lon": -50.1299319}, {"type": "node", "id": 9926695060, "lat": -25.0787253, "lon": -50.1302887}, {"type": "node", "id": 9926695061, "lat": -25.0780396, "lon": -50.1307393}, {"type": "node", "id": 9926695062, "lat": -25.0778411, "lon": -50.1303946}, {"type": "node", "id": 9972361783, "lat": -25.0511478, "lon": -50.139944, "tags": {"amenity": "school", "name": "Marista Escola Social Santa M\u00f4nica"}}, {"type": "way", "id": 70948751, "nodes": [845504629, 845504630, 845504631, 845504632, 845504629], "tags": {"amenity": "school", "building": "school", "name": "Escola Estudual Amalio Pinherio"}}, {"type": "way", "id": 165555581, "nodes": [1770952995, 1770952996, 1770952997, 1770952998, 1770952995], "tags": {"amenity": "school", "name": "Colegio Sepam,Cursinho"}}, {"type": "way", "id": 165555773, "nodes": [7631297798, 7631297795, 5457833881, 5457833882, 5457833880, 7631297794, 5457833879, 5457833878, 7631297796, 7631297792, 7631297797, 7631297793, 7631297798], "tags": {"addr:city": "Ponta Grossa", "addr:housenumber": "1", "addr:street": "Pra\u00e7a Santos Andrade", "amenity": "university", "name": "Universidade Estadual de Ponta Grossa"}}, {"type": "way", "id": 166236877, "nodes": [5457833869, 5457833870, 5457833871, 5457833872, 5457833869], "tags": {"addr:city": "Ponta Grossa", "addr:housenumber": "1171", "addr:street": "Rua General Carneiro", "amenity": "school", "name": "Col\u00e9gio Sepam"}}, {"type": "way", "id": 219464296, "nodes": [2286165398, 2286165355, 7806354292, 7806354290, 7806354288, 7806354289, 7806354291, 7806354287, 7806354284, 7806354283, 7806354286, 7806354282, 7806354281, 7806354274, 7806354273, 7806354272, 7806354270, 7806354269, 7806354271, 7806354285, 7806354275, 7806354276, 7806354277, 7806354278, 7806354279, 7806354280, 2286165377, 2286165375, 7710093208, 7710093207, 2286165379, 2286165349, 2286165409, 2286165403, 7710093204, 2286165351, 7710093203, 7710093205, 7710093206, 7710093201, 2286165385, 7710093202, 2286165401, 7710093200, 7710093199, 2286165327, 5608257547, 5608257546, 5608257545, 2286165335, 2286165412, 2286165346, 2286165367, 2286165373, 7710093197, 7710093196, 7710093194, 7710093189, 7710093195, 7710093190, 7710093193, 7710093192, 7710093191, 2286165398], "tags": {"addr:housenumber": "4748", "addr:postcode": "84030-900", "addr:street": "Avenida General Carlos Cavalcanti", "addr:suburb": "Uvaranas", "alt_name": "Campus Uvaranas", "amenity": "university", "name": "Universidade Estadual de Ponta Grossa", "operator:type": "public", "owner": "Estado do Paran\u00e1", "ownership": "state", "phone": "+55 42 3220-3000", "short_name": "UEPG", "website": "https://www.uepg.br/", "wikipedia": "pt:Universidade Estadual de Ponta Grossa"}}, {"type": "way", "id": 256244132, "nodes": [2619185854, 2619185855, 3103044507, 3103044508, 2619185857, 2619185854], "tags": {"amenity": "school", "building": "yes"}}, {"type": "way", "id": 256244192, "nodes": [2619186009, 2619186010, 2619186011, 2619185856, 2619186009], "tags": {"amenity": "school", "building": "yes"}}, {"type": "way", "id": 256249058, "nodes": [2619222904, 2619222905, 2619222906, 2619222907, 2619222904], "tags": {"addr:street": "Rua Padre Jo\u00e3o Ant\u00f4nio", "amenity": "school", "name": "Col\u00e9gio Estadual Polivalente"}}, {"type": "way", "id": 284063184, "nodes": [2878355477, 2878355478, 2878355479, 4942023735, 2878355480, 2878355482, 6389074134, 6389074135, 7009829737, 7009829738, 2878355483, 2878355484, 4942227170, 2878355485, 6389074097, 4942227169, 6389074100, 6389074101, 2878355486, 6389074131, 2878355477], "tags": {"addr:city": "Ponta Grossa", "addr:housenumber": "330", "addr:postcode": "84017-220", "addr:street": "Rua Doutor Washington Subtil Chueire", "addr:suburb": "Jardim Carvalho", "amenity": "university", "internet_access": "yes", "name": "UTFPR - Universidade Tecnol\u00f3gica Federal do Paran\u00e1", "name:en": "Parana Federal Technological University", "phone": "+55 42 3220-4800", "website": "http://www.utfpr.edu.br/pontagrossa", "wikipedia": "pt:Universidade Tecnol\u00f3gica Federal do Paran\u00e1"}}, {"type": "way", "id": 306062081, "nodes": [8445052805, 8445052808, 8445052806, 8445052807, 8445052805], "tags": {"addr:city": "Ponta Grossa", "addr:housenumber": "194", "addr:street": "Rua do Ros\u00e1rio", "addr:suburb": "Centro", "amenity": "school", "name": "Col\u00e9gio Estadual Regente Feij\u00f3", "wikidata": "Q9818306"}}, {"type": "way", "id": 306778599, "nodes": [8456336369, 8456336368, 8456336367, 8456336385, 8456336382, 8456336381, 8456336380, 8456336373, 8456336370, 8456336369], "tags": {"addr:city": "Ponta Grossa", "addr:housenumber": "20", "addr:street": "Rua Graciliano Ramos", "amenity": "school", "name": "Col\u00e9gio Estadual Meneleu de Almeida Torres"}}, {"type": "way", "id": 306952578, "nodes": [8445015657, 3119758709, 3119758710, 8445015654, 8445015658, 8445015659, 8445015652, 8445015655, 8445015656, 8445015657], "tags": {"addr:city": "Ponta Grossa", "addr:housenumber": "701", "addr:street": "Rua Rodrigues Alves", "amenity": "school", "name": "Col\u00e9gio Marista Pio XII", "wikidata": "Q55607897"}}, {"type": "way", "id": 435631175, "nodes": [4335316999, 4335317000, 4335317001, 4335317002, 4335317003, 4335316999], "tags": {"addr:housenumber": "810", "addr:street": "Rua Baldu\u00edno Taques", "amenity": "university", "building": "university", "building:levels": "4", "name": "Cescage Unidade Mita\u00ed"}}, {"type": "way", "id": 469394607, "nodes": [4637220577, 4637220578, 4637220579, 4637220580, 4637220581, 4637220577], "tags": {"amenity": "school", "name": "Col\u00e9gio Sagrada Fam\u00edlia - Unidade S\u00e3o Jos\u00e9"}}, {"type": "way", "id": 470435300, "nodes": [4646293529, 4646293530, 859537477, 6802158260, 6802158259, 6802158258, 6802158261, 4646293532, 4646293529], "tags": {"addr:housenumber": "124", "addr:postcode": "84031-150", "addr:street": "Rua Andrade Neves", "amenity": "college", "name": "Col\u00e9gio Estadual Professor Jo\u00e3o Ricardo Von Borell", "source": "Prefeitura de Ponta Grossa - PR", "source_ref": "http://wiki.openstreetmap.org/wiki/Pt-br:WikiProject_Brazil/PR/Ponta_Grossa/Agreement"}}, {"type": "way", "id": 470435302, "nodes": [4646293537, 4646293538, 4646293539, 4646293540, 4646293537], "tags": {"addr:city": "Ponta Grossa", "addr:housenumber": "1354", "addr:street": "Rua Teixeira Mendes", "addr:suburb": "Uvaranas", "amenity": "school", "name": "Elite Rede de Ensino - Ponta Grossa", "website": "https://ensinoelite.com.br"}}, {"type": "way", "id": 473305435, "nodes": [4674408654, 4674408655, 4674408656, 4674408657, 4674408654], "tags": {"amenity": "school", "name": "APAE"}}, {"type": "way", "id": 503974959, "nodes": [2878355477, 3948074772, 3948074773, 3948074774, 2878355479, 2878355478, 2878355477], "tags": {"amenity": "school", "name": "Escola Agr\u00edcola Municipal S\u00edlvio Batista Rosas"}}, {"type": "way", "id": 512644882, "nodes": [5012612800, 5012612801, 5012612802, 5012612803, 5012612804, 5012612805, 5012612806, 5012612807, 5012612808, 5750714268, 5750714269, 5012612800], "tags": {"amenity": "university", "internet_access": "yes", "name": "Cescage"}}, {"type": "way", "id": 546867138, "nodes": [5659978701, 5659978700, 5284341623, 5284341624, 5659978701], "tags": {"addr:housenumber": "461", "addr:postcode": "84020-520", "addr:street": "Rua Iap\u00f3", "amenity": "school", "name": "Escola Municipal Professora Alda dos Santos Rebona", "source": "Prefeitura de Ponta Grossa - PR", "source_ref": "http://wiki.openstreetmap.org/wiki/Pt-br:WikiProject_Brazil/PR/Ponta_Grossa/Agreement"}}, {"type": "way", "id": 546871142, "nodes": [5284367911, 5284367912, 5284367913, 5284367914, 5284367915, 5284367911], "tags": {"addr:postcode": "84020-770", "addr:street": "Rua Ewaldo Nack", "amenity": "school", "name": "Escola Estadual Nossa Senhora da Gl\u00f3ria", "source": "Prefeitura de Ponta Grossa - PR", "source_ref": "http://wiki.openstreetmap.org/wiki/Pt-br:WikiProject_Brazil/PR/Ponta_Grossa/Agreement"}}, {"type": "way", "id": 546873536, "nodes": [5284388711, 5284388712, 8759500592, 8759500593, 5284388711], "tags": {"amenity": "school", "name": "Escola Municipal Eurico Batista Rosas"}}, {"type": "way", "id": 546876561, "nodes": [5284399685, 5284413371, 5284413372, 5284413373, 5284399685], "tags": {"amenity": "school", "name": "Catequese da igreja Nossa Senhora da Gl\u00f3ria"}}, {"type": "way", "id": 562461635, "nodes": [5422301209, 5422301210, 5422301211, 5422301212, 5422301209], "tags": {"amenity": "school", "name": "Escola Municipal Pref. Fulton Vital de Macedo", "operator": "Prefeitura Municipal de Ponta Grossa"}}, {"type": "way", "id": 681385116, "nodes": [6380908940, 6380908941, 6380908942, 853366724, 6380908940], "tags": {"amenity": "school"}}, {"type": "way", "id": 703423753, "nodes": [6605849984, 6605849983], "tags": {"source": "Prefeitura de Ponta Grossa - PR"}}, {"type": "way", "id": 703423754, "nodes": [6605849983, 1031007468, 859537458, 6605849984], "tags": {"source": "Prefeitura de Ponta Grossa - PR"}}, {"type": "way", "id": 730820839, "nodes": [6844998552, 6844998549, 6844998548, 6844998547, 6844998551, 6844998546, 6844998550, 6844998545, 6844998544, 6844998543, 6844998552], "tags": {"amenity": "school"}}, {"type": "way", "id": 1074123146, "nodes": [9852540349, 9852540348, 9852505615, 9852505616, 9852540347, 9852540317, 9852540346, 9852540345, 9852540344, 9852540318, 9852540343, 9852540319, 9852540342, 9852540320, 9852540341, 9852540340, 9852540321, 9852540339, 9852540322, 9852540338, 9852540337, 9852540336, 9852540323, 9852540335, 9852540334, 9852540333, 9852540332, 9852540331, 9852540330, 9852540329, 9852540328, 9852540327, 4696248861, 9852540326, 9852540325, 9852540324, 9852540349], "tags": {"addr:street": "Rua Desembargador Westphalem", "amenity": "university", "name": "Unicesumar"}}, {"type": "way", "id": 1078707169, "nodes": [859537441, 9888860102, 9888860101, 9888860100, 859537441], "tags": {"addr:city": "Ponta Grossa", "addr:housenumber": "1168", "addr:postcode": "84010-050", "addr:street": "Rua Baldu\u00edno Taques", "amenity": "college", "name": "Col\u00e9gio Estadual Professor J\u00falio Teodorico", "source": "Prefeitura de Ponta Grossa - PR", "source_ref": "http://wiki.openstreetmap.org/wiki/Pt-br:WikiProject_Brazil/PR/Ponta_Grossa/Agreement"}}, {"type": "way", "id": 1080236896, "nodes": [9901542563, 9901542562, 5457830426, 9901542561, 9901542560, 9901542563], "tags": {"addr:housenumber": "350", "addr:street": "Rua Tiradentes", "amenity": "college", "building": "yes", "contact:facebook": "https://www.facebook.com/altodasete", "name": "Alto da VII Alta Performance", "network": "DeRose Method", "training": "derose_method"}}, {"type": "way", "id": 1082890777, "nodes": [9924289944, 9924289943, 9924289942, 9924289941, 9924289940, 9924289939, 9924289938, 859537398, 9924289944], "tags": {"addr:housenumber": "150", "addr:postcode": "84015-150", "addr:street": "Avenida Anita Garibaldi", "amenity": "college", "name": "Col\u00e9gio Estadual Presidente Kennedy", "source": "Prefeitura de Ponta Grossa - PR", "source_ref": "http://wiki.openstreetmap.org/wiki/Pt-br:WikiProject_Brazil/PR/Ponta_Grossa/Agreement"}}, {"type": "way", "id": 1082912309, "nodes": [9924427913, 9924427912, 9924427911, 9924427910, 9924427909, 9924427908, 9924427907, 9924427906, 859537391, 9924427913], "tags": {"addr:housenumber": "1533", "addr:postcode": "84025-000", "addr:street": "Avenida General Carlos Cavalcanti", "amenity": "college", "name": "Col\u00e9gio Estadual General Os\u00f3rio", "source": "Prefeitura de Ponta Grossa - PR", "source_ref": "http://wiki.openstreetmap.org/wiki/Pt-br:WikiProject_Brazil/PR/Ponta_Grossa/Agreement"}}, {"type": "way", "id": 1082937407, "nodes": [9924667436, 9924667435, 9924667434, 9924667433, 859537432, 9924667436], "tags": {"addr:street": "Rua Lauro de Almeida", "amenity": "college", "name": "Col\u00e9gio Estadual Professora Linda Salamuni Bacila", "postal_code": "84072-970", "source": "Prefeitura de Ponta Grossa - PR", "source_ref": "http://wiki.openstreetmap.org/wiki/Pt-br:WikiProject_Brazil/PR/Ponta_Grossa/Agreement"}}, {"type": "way", "id": 1083168468, "nodes": [9926695062, 9926695061, 9926695060, 9926695059, 9926695058, 9926695057, 9926695056, 859537495, 9926695055, 9926695054, 9926695053, 9926695062], "tags": {"addr:street": "Avenida Sargento Carlos Argemiro Camargo", "amenity": "college", "name": "Col\u00e9gio Estadual Trinta e Um de Mar\u00e7o", "postal_code": "84021-120", "source": "Prefeitura de Ponta Grossa - PR", "source_ref": "http://wiki.openstreetmap.org/wiki/Pt-br:WikiProject_Brazil/PR/Ponta_Grossa/Agreement"}}, {"type": "relation", "id": 9774606, "members": [{"type": "way", "ref": 703423753, "role": "outer"}, {"type": "way", "ref": 703423754, "role": "outer"}], "tags": {"addr:housenumber": "2100", "addr:postcode": "84071-120", "addr:street": "Rua Alberto de Oliveira", "amenity": "school", "name": "Col\u00e9gio Estadual Doutor Epaminondas Novaes Ribas", "source_ref": "http://wiki.openstreetmap.org/wiki/Pt-br:WikiProject_Brazil/PR/Ponta_Grossa/Agreement", "type": "multipolygon"}}]}