{"version": 0.6, "generator": "Overpass API 0.7.62.10 2d4cfc48", "osm3s": {"timestamp_osm_base": "2026-02-09T19:49:23Z", "copyright": "The data included in this document is from www.openstreetmap.org. The data is made available under ODbL."}, "elements": [{"type": "node", "id": 849022495, "lat": -25.1088785, "lon": -50.1580053, "tags": {"addr:street": "Rua Saint Hilaire", "amenity": "courthouse", "capacity": "1", "name": "Tribunal Regional Eleitoral do Paran\u00e1", "phone": "+55 42 3224 9654", "source": "Prefeitura de Ponta Grossa - PR", "source_ref": "http://wiki.openstreetmap.org/wiki/Pt-br:WikiProject_Brazil/PR/Ponta_Grossa/Agreement"}}, {"type": "node", "id": 1030901784, "lat": -25.086804, "lon": -50.1667703, "tags": {"amenity": "police", "name": "Pol\u00edcia Rodovi\u00e1ria Federal", "opening_hours": "Mo-Fr 08:00-17:00", "operator": "Pol\u00edcia Rodovi\u00e1ria Federal", "operator:wikidata": "Q1158853", "operator:wikipedia": "pt:Pol\u00edcia Rodovi\u00e1ria Federal", "phone": "+55 41 3535 2130", "police": "traffic_police", "source": "Bing"}}, {"type": "node", "id": 3092206179, "lat": -25.2133194, "lon": -50.0606386}, {"type": "node", "id": 3092206180, "lat": -25.213398, "lon": -50.0607355}, {"type": "node", "id": 3092206181, "lat": -25.2135086, "lon": -50.0606259}, {"type": "node", "id": 3092206182, "lat": -25.21343, "lon": -50.060529}, {"type": "node", "id": 4067232167, "lat": -25.0944667, "lon": -50.153385, "tags": {"amenity": "police"}}, {"type": "node", "id": 4277359889, "lat": -25.0920435, "lon": -50.1168335, "tags": {"addr:street": "Avenida General Carlos Cavalcanti", "amenity": "fire_station", "name": "Corpo de Bombeiros", "opening_hours": "24/7"}}, {"type": "node", "id": 4287245889, "lat": -25.1093328, "lon": -50.1583001, "tags": {"addr:housenumber": "590", "addr:street": "Rua Doutor Leopoldo Guimar\u00e3es da Cunha", "amenity": "courthouse", "name": "F\u00f3rum - Desembargador Joaquim Ferreira Guimar\u00e3es", "opening_hours": "Mo-Fr 12:00-18:00", "phone": "+55 42 3220 4900", "website": "https://www.tjpr.jus.br/"}}, {"type": "node", "id": 4646305455, "lat": -25.103194, "lon": -50.1575313}, {"type": "node", "id": 4646305470, "lat": -25.1031869, "lon": -50.1573647}, {"type": "node", "id": 4646305471, "lat": -25.1031651, "lon": -50.157311}, {"type": "node", "id": 4646305472, "lat": -25.1030606, "lon": -50.1573378}, {"type": "node", "id": 4646305473, "lat": -25.1030072, "lon": -50.1574237}, {"type": "node", "id": 4646305474, "lat": -25.1030145, "lon": -50.157488}, {"type": "node", "id": 5010956422, "lat": -25.1536386, "lon": -50.1649327, "tags": {"addr:street": "Rua Batu\u00edra", "amenity": "police", "name": "Penitenci\u00e1ria Estadual de Ponta Grossa", "name:pt": "Penitenci\u00e1ria Estadual de Ponta Grossa", "opening_hours": "24/7"}}, {"type": "node", "id": 5459435745, "lat": -25.1090936, "lon": -50.1587638}, {"type": "node", "id": 5459435746, "lat": -25.1093646, "lon": -50.1582581}, {"type": "node", "id": 5459435747, "lat": -25.1087761, "lon": -50.1578734}, {"type": "node", "id": 5459435748, "lat": -25.108505, "lon": -50.1583791}, {"type": "node", "id": 6003744294, "lat": -25.04352, "lon": -50.2837455, "tags": {"amenity": "police", "email": "del03.pr@prf.gov.br", "name": "PRF - Pol\u00edcia Rodovi\u00e1ria Federal", "operator": "Pol\u00edcia Rodovi\u00e1ria Federal", "operator:wikidata": "Q1158853", "operator:wikipedia": "pt:Pol\u00edcia Rodovi\u00e1ria Federal", "phone": "+55 41 3535 2131", "police": "traffic_police"}}, {"type": "node", "id": 9579617217, "lat": -25.1028913, "lon": -50.1619114, "tags": {"addr:city": "Ponta Grossa", "addr:housenumber": "316", "addr:postcode": "84040-120", "addr:street": "Rua Carlos Osternack", "addr:suburb": "Vila Estrela", "amenity": "police", "email": "dpf.pgz.srpr@pf.gov.br", "name": "Pol\u00edcia Federal do Brasil", "operator": "Pol\u00edcia Federal do Brasil", "operator:en": "Federal Police of Brazil", "operator:wikidata": "Q2289697", "operator:wikipedia": "pt:Pol\u00edcia Federal do Brasil", "phone": "+55 42 3026 5965"}}, {"type": "node", "id": 12288225259, "lat": -25.0785064, "lon": -50.1891002}, {"type": "node", "id": 12288225260, "lat": -25.0783024, "lon": -50.1889846}, {"type": "node", "id": 12288225261, "lat": -25.0782536, "lon": -50.1890922}, {"type": "node", "id": 12288225262, "lat": -25.0780983, "lon": -50.1890045}, {"type": "node", "id": 12288225263, "lat": -25.0780351, "lon": -50.189156}, {"type": "node", "id": 12288225264, "lat": -25.0783854, "lon": -50.1893494}, {"type": "node", "id": 12288225266, "lat": -25.0784806, "lon": -50.1890856}, {"type": "node", "id": 12288225267, "lat": -25.0783168, "lon": -50.1889928}, {"type": "way", "id": 304646167, "nodes": [3092206179, 3092206180, 3092206181, 3092206182, 3092206179], "tags": {"amenity": "police", "building": "yes", "name": "Pol\u00edcia Rodovi\u00e1ria Federal", "police": "traffic_police"}}, {"type": "way", "id": 470437014, "nodes": [4646305455, 4646305470, 4646305471, 4646305472, 4646305473, 4646305474, 4646305455], "tags": {"amenity": "police", "building": "yes"}}, {"type": "way", "id": 567058714, "nodes": [5459435745, 5459435746, 5459435747, 5459435748, 5459435745], "tags": {"amenity": "courthouse", "building": "yes"}}, {"type": "way", "id": 1328162751, "nodes": [12288225259, 12288225266, 12288225267, 12288225260, 12288225261, 12288225262, 12288225263, 12288225264, 12288225259], "tags": {"amenity": "fire_station"}}]}